fips,ST,lat,lng,population,Recip_County,Vax_Pct,date,county,cases,deaths,Unemployment_rate_2021,Median_Household_Income_2020,cases_100000,deaths_100000
6037,CA,34.3209,-118.2247,10040682,Los Angeles County,73.6,2022-09-14,Los Angeles,3434458.0,33414.0,8.9,75624,34205.4254880296,332.7861593465464
17031,IL,41.8401,-87.8168,5169517,Cook County,73.7,2022-09-14,Cook,1392834.0,15312.0,7.0,71611,26943.213456885816,296.1978846379652
48201,TX,29.8578,-95.3936,4680609,Harris County,64.7,2022-09-14,Harris,1208024.0,11270.0,6.5,61906,25809.120137999136,240.780633460304
4013,AZ,33.349,-112.4915,4412779,Maricopa County,58.8,2022-09-14,Maricopa,1421340.0,17865.0,4.5,71799,32209.63479023083,404.84692299342436
6073,CA,33.0343,-116.735,3323970,San Diego County,77.9,2022-09-14,San Diego,986208.0,5474.0,6.5,87126,29669.58185543191,164.6825934048743
6059,CA,33.7031,-117.7609,3170345,Orange County,73.3,2022-09-14,Orange,721702.0,7389.0,6.0,98786,22764.147119635243,233.0661174099349
12086,FL,25.6149,-80.5623,2705528,Miami-Dade County,86.8,2022-09-14,Miami-Dade,1444021.0,11678.0,5.2,59259,53372.98301847181,431.63478625983544
48113,TX,32.7666,-96.7778,2622634,Dallas County,61.2,2022-09-14,Dallas,655208.0,6896.0,5.6,65770,24982.82261268633,262.9417600778454
6065,CA,33.7437,-115.9938,2437864,Riverside County,60.7,2022-09-14,Riverside,724864.0,6673.0,7.3,76409,29733.57004328379,273.72322656226925
32003,NV,36.2152,-115.0135,2228866,Clark County,58.9,2022-09-14,Clark,638710.0,8930.0,8.3,62496,28656.276330654247,400.65217020673293
53033,WA,47.4902,-121.8052,2225064,King County,82.8,2022-09-14,King,510571.0,3145.0,4.3,102620,22946.351206077667,141.34424897441153
6071,CA,34.8414,-116.1785,2162532,San Bernardino County,59.1,2022-09-14,San Bernardino,692549.0,8057.0,7.4,65984,32024.913388564884,372.5725214702025
48439,TX,32.7719,-97.2911,2077153,Tarrant County,57.2,2022-09-14,Tarrant,644102.0,6080.0,5.3,72064,31008.88572002159,292.7083368437472
48029,TX,29.4489,-98.52,1978826,Bexar County,71.0,2022-09-14,Bexar,654816.0,6313.0,5.4,60477,33091.13585530006,319.02754461483727
12011,FL,26.1523,-80.4871,1942273,Broward County,72.6,2022-09-14,Broward,726187.0,6333.0,4.9,63901,37388.51335522864,326.06126945079296
6085,CA,37.2318,-121.6951,1924379,Santa Clara County,87.8,2022-09-14,Santa Clara,445503.0,2478.0,4.7,139462,23150.48127214026,128.76881321195046
26163,MI,42.2819,-83.2822,1753059,Wayne County,55.0,2022-09-14,Wayne,480911.0,8375.0,8.0,51777,27432.676253337733,477.73634543960014
6001,CA,37.6469,-121.8888,1661584,Alameda County,83.9,2022-09-14,Alameda,362660.0,2112.0,6.1,113518,21826.161060770926,127.1076274205818
25017,MA,42.4856,-71.3918,1605899,Middlesex County,81.7,2022-09-14,Middlesex,399943.0,4270.0,4.6,111158,24904.61728913213,265.89467955332185
42101,PA,40.0077,-75.1339,1581531,Philadelphia County,72.3,2022-09-14,Philadelphia,359969.0,5275.0,9.2,55102,22760.79318078495,333.53756581439126
6067,CA,38.4493,-121.3443,1537948,Sacramento County,69.1,2022-09-14,Sacramento,376253.0,3425.0,7.0,72953,24464.611287247684,222.69933703870353
12099,FL,26.6476,-80.4655,1482057,Palm Beach County,67.5,2022-09-14,Palm Beach,445832.0,5575.0,4.3,68200,30081.97390518718,376.1663687698921
36103,NY,40.8686,-72.8448,1481364,Suffolk County,77.4,2022-09-14,Suffolk,507897.0,4587.0,4.6,109084,34285.76636127244,309.6470550114624
12057,FL,27.9292,-82.3092,1451358,Hillsborough County,64.3,2022-09-14,Hillsborough,451775.0,4121.0,4.3,65272,31127.743809590742,283.9409711456443
12095,FL,28.5144,-81.3235,1373784,Orange County,70.8,2022-09-14,Orange,449903.0,3077.0,5.2,69074,32749.180366054636,223.97989785876092
36059,NY,40.7328,-73.5865,1355683,Nassau County,84.1,2022-09-14,Nassau,491795.0,4009.0,4.5,122730,36276.54842614387,295.71809929017326
39049,OH,39.9695,-83.0093,1304715,Franklin County,65.5,2022-09-14,Franklin,336627.0,2683.0,5.0,62643,25800.807072809006,205.63877935027958
26125,MI,42.6604,-83.3858,1255340,Oakland County,67.0,2022-09-14,Oakland,348751.0,4104.0,4.7,82849,27781.397868306594,326.9233833065146
27053,MN,45.0045,-93.477,1255296,Hennepin County,75.8,2022-09-14,Hennepin,356366.0,2682.0,3.4,81772,28389.00147853574,213.6547873967574
48453,TX,30.3344,-97.782,1250884,Travis County,70.7,2022-09-14,Travis,273381.0,1786.0,4.0,82605,21855.02412693743,142.77902667233732
39035,OH,41.4243,-81.6586,1241475,Cuyahoga County,66.2,2022-09-14,Cuyahoga,315613.0,3910.0,6.5,55128,25422.42091061036,314.9479449847963
42003,PA,40.4688,-79.9812,1218380,Allegheny County,72.0,2022-09-14,Allegheny,315361.0,3525.0,6.1,64236,25883.632364287,289.31860339138854
51059,VA,38.8368,-77.277,1149439,Fairfax County,79.0,2022-09-14,Fairfax,233357.0,1568.0,3.5,132509,20301.816799325585,136.41437257653516
6013,CA,37.9191,-121.9277,1147788,Contra Costa County,83.2,2022-09-14,Contra Costa,266455.0,1415.0,6.4,106484,23214.6528801486,123.28060582616303
49035,UT,40.6673,-111.9236,1146215,Salt Lake County,71.4,2022-09-14,Salt Lake,387367.0,1717.0,2.8,79294,33795.31763238136,149.79737658292728
37119,NC,35.2467,-80.8328,1095170,Mecklenburg County,66.3,2022-09-14,Mecklenburg,336751.0,1736.0,4.9,72340,30748.74220440662,158.5142032743775
37183,NC,35.7903,-78.6503,1091662,Wake County,77.2,2022-09-14,Wake,363398.0,1234.0,4.0,88763,33288.50871423573,113.03865115759274
13121,GA,33.7903,-84.467,1051550,Fulton County,57.5,2022-09-14,Fulton,259764.0,2495.0,4.7,71504,24702.962293756835,237.26879368551187
24031,MD,39.1363,-77.2042,1047661,Montgomery County,89.8,2022-09-14,Montgomery,220803.0,2165.0,5.5,115394,21075.80600976843,206.6508154832527
4019,AZ,32.0974,-111.7899,1038476,Pima County,71.2,2022-09-14,Pima,289898.0,3983.0,5.0,56551,27915.71495152512,383.542806959429
48085,TX,33.188,-96.5724,1006038,Collin County,68.3,2022-09-14,Collin,255335.0,1549.0,4.3,101560,25380.254026189865,153.97032716458025
29189,MO,38.6407,-90.4434,996179,St. Louis County,65.9,2022-09-14,St. Louis,268680.0,3498.0,4.5,68964,26971.056406529347,351.14171248339903
6019,CA,36.7582,-119.6493,990204,Fresno County,62.5,2022-09-14,Fresno,302506.0,2835.0,9.2,61401,30549.866492157173,286.3046402559472
12103,FL,27.9199,-82.7256,970985,Pinellas County,65.8,2022-09-14,Pinellas,257073.0,3715.0,4.0,61532,26475.486233052005,382.6011730356288
36119,NY,41.1624,-73.7561,968738,Westchester County,84.0,2022-09-14,Westchester,302271.0,2812.0,4.8,103340,31202.55425099459,290.27456340104345
18097,IN,39.7817,-86.1385,957337,Marion County,58.6,2022-09-14,Marion,252930.0,3090.0,4.4,56185,26420.16343252167,322.77035150631383
55079,WI,43.0072,-87.9669,949180,Milwaukee County,66.0,2022-09-14,Milwaukee,314051.0,2368.0,5.4,52281,33086.558924545396,249.47849722918727
12031,FL,30.3316,-81.6708,948651,Duval County,62.1,2022-09-14,Duval,298881.0,3638.0,4.5,55202,31505.8962674366,383.49192695733205
9001,CT,41.2711,-73.3893,944306,Fairfield County,83.6,2022-09-14,Fairfield,241586.0,2804.0,6.1,98828,25583.444349607016,296.9376452124629
47157,TN,35.1842,-89.894,936611,Shelby County,56.9,2022-09-14,Shelby,276498.0,3480.0,6.8,50870,29521.113888263113,371.55233069011575
34003,NJ,40.9597,-74.0742,931275,Bergen County,79.3,2022-09-14,Bergen,284410.0,3556.0,6.0,107114,30539.85127916029,381.8420981987061
13135,GA,33.9617,-84.0236,926414,Gwinnett County,56.1,2022-09-14,Gwinnett,241015.0,1988.0,3.5,73460,26015.906495368163,214.59088485277638
17043,IL,41.852,-88.0856,926005,DuPage County,78.1,2022-09-14,DuPage,264311.0,1871.0,4.5,92101,28543.150414954565,202.0507448663884
36029,NY,42.7639,-78.7323,918873,Erie County,71.1,2022-09-14,Erie,249049.0,2750.0,5.5,59584,27103.745566579928,299.27966106306314
24033,MD,38.8295,-76.8473,910551,Prince George's County,76.9,2022-09-14,Prince George's,206063.0,2245.0,7.5,85246,22630.583020610597,246.55400960517312
6029,CA,35.3426,-118.7301,892458,Kern County,54.8,2022-09-14,Kern,282623.0,2532.0,10.0,58583,31667.93283269353,283.71083008948324
9003,CT,41.8064,-72.7329,892153,Hartford County,77.4,2022-09-14,Hartford,214161.0,3266.0,6.5,73476,24004.963274236594,366.08070588789144
53053,WA,47.0241,-122.1046,891862,Pierce County,66.9,2022-09-14,Pierce,227216.0,1508.0,6.1,80236,25476.587185012926,169.08445476990835
6075,CA,37.7558,-122.4449,874784,San Francisco County,85.3,2022-09-14,San Francisco,188454.0,1022.0,5.0,121722,21542.91802319201,116.82884003365402
26099,MI,42.6957,-82.9323,870893,Macomb County,57.3,2022-09-14,Macomb,272220.0,4184.0,5.9,64870,31257.571251577403,480.42641288883937
48121,TX,33.2055,-97.1168,861690,Denton County,62.1,2022-09-14,Denton,209895.0,1392.0,4.4,90880,24358.52800891272,161.54301430909027
48215,TX,26.3967,-98.1811,861137,Hidalgo County,77.9,2022-09-14,Hidalgo,247706.0,3987.0,9.3,46653,28764.993258912345,462.9925319664583
9009,CT,41.4106,-72.9321,855733,New Haven County,79.8,2022-09-14,New Haven,233223.0,2944.0,6.6,72517,27254.17858140331,344.0325428609157
6111,CA,34.4561,-119.0836,845599,Ventura County,73.3,2022-09-14,Ventura,221735.0,1558.0,6.2,90961,26222.240092526128,184.248089224325
48141,TX,31.7686,-106.2348,836915,El Paso County,83.7,2022-09-14,El Paso,237570.0,3799.0,6.2,48522,28386.395273116148,453.92901310168895
24005,MD,39.4627,-76.6393,828193,Baltimore County,74.2,2022-09-14,Baltimore,156670.0,2610.0,5.7,79974,18917.088166647147,315.143933841508
42091,PA,40.2108,-75.3673,827180,Montgomery County,80.5,2022-09-14,Montgomery,181575.0,2438.0,5.0,94094,21951.08682511666,294.7363330834885
25027,MA,42.3514,-71.9077,826655,Worcester County,71.9,2022-09-14,Worcester,221053.0,2737.0,5.9,77931,26740.6596464063,331.0933823662834
34023,NJ,40.4392,-74.4117,825015,Middlesex County,75.2,2022-09-14,Middlesex,243552.0,2938.0,5.7,95610,29520.917801494517,356.11473730780654
39061,OH,39.1955,-84.5428,815790,Hamilton County,63.8,2022-09-14,Hamilton,218291.0,2121.0,4.9,63919,26758.23434952623,259.99338064943186
53061,WA,48.0475,-121.6975,811572,Snohomish County,72.0,2022-09-14,Snohomish,189662.0,1284.0,5.0,93589,23369.707185560863,158.2114710709586
41051,OR,45.5468,-122.4148,809869,Multnomah County,80.6,2022-09-14,Multnomah,156063.0,1378.0,5.6,74707,19270.15356804619,170.15097503423394
25025,MA,42.3334,-71.0719,801162,Suffolk County,75.0,2022-09-14,Suffolk,248866.0,2072.0,6.0,85221,31063.130802509353,258.62434813433487
34013,NJ,40.7872,-74.2471,798698,Essex County,74.6,2022-09-14,Essex,260144.0,3673.0,8.0,65528,32571.009317664502,459.873444030159
40109,OK,35.5515,-97.4072,792668,Oklahoma County,67.0,2022-09-14,Oklahoma,227124.0,2542.0,4.1,55332,28653.105713867593,320.68911574581034
48157,TX,29.5275,-95.7709,790892,Fort Bend County,72.9,2022-09-14,Fort Bend,231182.0,1286.0,5.9,97210,29230.539694420982,162.60121483084922
25009,MA,42.6732,-70.952,787038,Essex County,76.1,2022-09-14,Essex,235947.0,2879.0,6.4,88269,29979.11155496939,365.80190537178635
21111,KY,38.1872,-85.6591,768419,Jefferson County,65.3,2022-09-14,Jefferson,275639.0,2503.0,4.8,62067,35870.92458671636,325.73374682302233
6081,CA,37.4229,-122.329,765623,San Mateo County,85.7,2022-09-14,San Mateo,176652.0,826.0,4.6,132369,23072.974557974354,107.88599611035718
13067,GA,33.9415,-84.5767,756653,Cobb County,59.5,2022-09-14,Cobb,204015.0,1953.0,3.3,81517,26962.821795459742,258.1103887779471
12071,FL,26.5779,-81.8337,756570,Lee County,63.3,2022-09-14,Lee,225766.0,2365.0,4.2,66140,29840.728551224605,312.59500112349156
13089,GA,33.7715,-84.2264,755287,DeKalb County,57.8,2022-09-14,DeKalb,180614.0,1837.0,4.6,69545,23913.293886959527,243.21880291862564
6077,CA,37.9348,-121.2714,751615,San Joaquin County,60.9,2022-09-14,San Joaquin,209815.0,2303.0,8.7,70685,27915.22255410017,306.4068705387732
36055,NY,43.1464,-77.6961,743084,Monroe County,73.7,2022-09-14,Monroe,177271.0,1700.0,5.2,61358,23856.11855456449,228.77628908710184
8031,CO,39.762,-104.8758,715878,Denver County,77.6,2022-09-14,Denver,209458.0,1430.0,5.9,75355,29258.896068883245,199.75470680758454
8041,CO,38.8321,-104.5255,710499,El Paso County,66.2,2022-09-14,El Paso,220274.0,1790.0,5.6,72459,31002.71780818833,251.9356114505439
12105,FL,27.9489,-81.6977,705735,Polk County,58.5,2022-09-14,Polk,243113.0,3218.0,5.4,54591,34448.19939495703,455.9785188491431
25021,MA,42.1605,-71.2114,703740,Norfolk County,81.1,2022-09-14,Norfolk,158964.0,2019.0,5.1,106348,22588.455963850283,286.8957285361071
11001,DC,38.9047,-77.0163,701974,District of Columbia,75.3,2022-09-14,District of Columbia,167242.0,1382.0,6.6,91957,23824.529113613895,196.87338847307734
29095,MO,39.0085,-94.3461,700733,Jackson County,58.8,2022-09-14,Jackson,108986.0,1261.0,5.5,56398,15553.142209657603,179.95441915822434
17097,IL,42.3233,-88.0037,699682,Lake County,80.0,2022-09-14,Lake,189614.0,1528.0,5.3,100325,27100.025440128516,218.38492343664691
47037,TN,36.1695,-86.7847,690540,Davidson County,66.7,2022-09-14,Davidson,238425.0,1749.0,4.2,64418,34527.326440177254,253.28004170649055
17197,IL,41.445,-87.9786,689704,Will County,68.8,2022-09-14,Will,198128.0,1679.0,5.7,90349,28726.526161947735,243.4377646062659
35001,NM,35.0514,-106.6702,679037,Bernalillo County,71.8,2022-09-14,Bernalillo,178780.0,2072.0,6.2,56632,26328.462219289966,305.138011625287
34017,NJ,40.7371,-74.0779,671923,Hudson County,79.8,2022-09-14,Hudson,212147.0,2777.0,6.8,77323,31573.111800012797,413.29140392574743
1073,AL,33.5543,-86.8964,658615,Jefferson County,59.9,2022-09-14,Jefferson,216936.0,2437.0,3.6,57802,32938.21124632752,370.01890330466205
26081,MI,43.0322,-85.5493,652617,Kent County,62.3,2022-09-14,Kent,189488.0,1649.0,4.7,65012,29035.100219577485,252.67499927216116
40143,OK,36.1211,-95.9415,650291,Tulsa County,63.6,2022-09-14,Tulsa,194289.0,2236.0,4.0,58863,29877.2395742829,343.8460627626709
8005,CO,39.6498,-104.3392,649980,Arapahoe County,69.7,2022-09-14,Arapahoe,187452.0,1366.0,5.8,82381,28839.65660481861,210.16031262500383
44007,RI,41.8721,-71.58,636161,Providence County,72.1,2022-09-14,Providence,253786.0,2596.0,6.0,67752,39893.36032859606,408.0727991813393
42017,PA,40.337,-75.1069,627668,Bucks County,76.1,2022-09-14,Bucks,142263.0,2011.0,5.3,92441,22665.326255281452,320.39230931001737
49049,UT,40.1199,-111.6703,621506,Utah County,59.2,2022-09-14,Utah,218053.0,836.0,2.3,81804,35084.61704311785,134.5119757492285
34025,NJ,40.2603,-74.2213,620821,Monmouth County,69.6,2022-09-14,Monmouth,199444.0,2275.0,5.5,104219,32125.846258422313,366.45023283684026
24510,MD,39.3051,-76.6144,602274,Baltimore city,65.9,2022-09-14,Baltimore city,135533.0,1861.0,7.6,51485,22503.54489816927,308.9955734433165
34029,NJ,39.8855,-74.2813,602018,Ocean County,55.7,2022-09-14,Ocean,191845.0,3117.0,6.0,78181,31866.987365826273,517.7586052244285
20091,KS,38.8838,-94.8223,597574,Johnson County,78.7,2022-09-14,Johnson,167338.0,1258.0,2.7,91799,28002.891692074954,210.51786054948843
41067,OR,45.5601,-123.0983,595761,Washington County,77.6,2022-09-14,Washington,112561.0,697.0,4.4,85385,18893.650306079115,116.99322379276254
12009,FL,28.2936,-80.7323,594001,Brevard County,65.9,2022-09-14,Brevard,164026.0,2321.0,4.0,65871,27613.758225996255,390.7400829291533
48339,TX,30.3002,-95.503,590188,Montgomery County,55.7,2022-09-14,Montgomery,163592.0,1332.0,5.8,85348,27718.625251614743,225.69079683084033
8059,CO,39.5864,-105.2505,578795,Jefferson County,78.9,2022-09-14,Jefferson,150245.0,1441.0,5.0,90097,25958.240827926988,248.9655231990601
24003,MD,39.0065,-76.6051,575421,Anne Arundel County,78.5,2022-09-14,Anne Arundel,109082.0,1164.0,4.7,105979,18956.90285895023,202.28667358334158
48491,TX,30.6475,-97.6004,570437,Williamson County,69.6,2022-09-14,Williamson,157674.0,951.0,4.0,91507,27640.913895837755,166.7142909734116
31055,NE,41.2954,-96.1543,565739,Douglas County,68.4,2022-09-14,Douglas,168837.0,1180.0,3.0,65788,29843.62046809571,208.5767465209222
42045,PA,39.9167,-75.3991,565328,Delaware County,78.1,2022-09-14,Delaware,128951.0,1934.0,6.3,75174,22809.943961735487,342.10228398381116
25005,MA,41.7972,-71.1144,563301,Bristol County,67.7,2022-09-14,Bristol,168380.0,2263.0,6.5,71998,29891.656503361435,401.7390347256618
10003,DE,39.5768,-75.6527,558306,New Castle County,70.8,2022-09-14,New Castle,173462.0,1493.0,5.3,75145,31069.34190211103,267.4160764885207
34039,NJ,40.6601,-74.3087,555208,Union County,73.2,2022-09-14,Union,174774.0,2424.0,6.7,83189,31479.01327070215,436.5931326637945
27123,MN,45.0171,-93.0996,546598,Ramsey County,73.3,2022-09-14,Ramsey,146219.0,1412.0,3.8,66123,26750.738202481534,258.32513108353857
6099,CA,37.5591,-120.9977,546235,Stanislaus County,55.8,2022-09-14,Stanislaus,157552.0,1726.0,8.4,64501,28843.26343057475,315.9812168755206
12127,FL,29.0583,-81.1819,546107,Volusia County,60.7,2022-09-14,Volusia,140976.0,2162.0,4.6,55463,25814.721290882557,395.89311252190504
42071,PA,40.0424,-76.2477,543050,Lancaster County,61.4,2022-09-14,Lancaster,136424.0,1962.0,4.9,73006,25121.81198784642,361.29269864653344
55025,WI,43.0673,-89.4181,542459,Dane County,84.4,2022-09-14,Dane,163314.0,568.0,2.8,74829,30106.238443827093,104.70837427344739
39153,OH,41.126,-81.5322,540810,Summit County,64.6,2022-09-14,Summit,130451.0,1760.0,5.4,60715,24121.410476877278,325.43776927201793
12101,FL,28.3091,-82.3932,539885,Pasco County,60.2,2022-09-14,Pasco,149414.0,2104.0,4.4,52332,27675.153041851507,389.7126239847375
37081,NC,36.0795,-79.7889,532956,Guilford County,65.8,2022-09-14,Guilford,143465.0,1327.0,5.6,55577,26918.732503246047,248.98865947657967
39113,OH,39.7547,-84.2907,531988,Montgomery County,57.4,2022-09-14,Montgomery,146953.0,2079.0,5.6,54692,27623.367444378444,390.7982886832034
17089,IL,41.9388,-88.4286,531756,Kane County,68.1,2022-09-14,Kane,152648.0,1213.0,5.9,83784,28706.399175561724,228.11214165895638
42029,PA,39.9731,-75.7484,521980,Chester County,81.4,2022-09-14,Chester,107973.0,1223.0,4.2,107491,20685.275297904136,234.30016475727038
25023,MA,41.9512,-70.8114,518597,Plymouth County,71.8,2022-09-14,Plymouth,131813.0,1762.0,6.1,88420,25417.23149189062,339.76286017852016
45045,SC,34.8941,-82.3706,516126,Greenville County,56.6,2022-09-14,Greenville,193120.0,2045.0,3.4,62475,37417.21982616648,396.221077798832
20173,KS,37.6848,-97.461,515416,Sedgwick County,56.8,2022-09-14,Sedgwick,161079.0,1487.0,4.6,59789,31252.23120741304,288.50481940801217
53063,WA,47.6207,-117.404,513402,Spokane County,62.6,2022-09-14,Spokane,142831.0,1516.0,5.4,60827,27820.499335803135,295.28517613877625
8001,CO,39.8737,-104.3379,509844,Adams County,69.8,2022-09-14,Adams,159045.0,1447.0,6.2,73615,31194.836067503,283.81230337122724
34007,NJ,39.8035,-74.9597,506721,Camden County,70.9,2022-09-14,Camden,151139.0,1895.0,6.8,71718,29826.86725041986,373.9730542053714
34031,NJ,41.0343,-74.3008,502763,Passaic County,71.7,2022-09-14,Passaic,171722.0,2388.0,8.4,64422,34155.65584579613,474.9752865664339
6097,CA,38.5289,-122.8881,496801,Sonoma County,79.7,2022-09-14,Sonoma,111036.0,521.0,5.5,87366,22350.196557575367,104.87096443042587
34027,NJ,40.862,-74.5445,492715,Morris County,79.1,2022-09-14,Morris,147800.0,1611.0,5.0,114103,29997.057122271497,326.9638634910648
18089,IN,41.4167,-87.3821,485983,Lake County,59.0,2022-09-14,Lake,123781.0,1893.0,6.1,59158,25470.232497844576,389.51979801762616
19153,IA,41.6855,-93.5735,485418,Polk County,68.9,2022-09-14,Polk,140274.0,1154.0,4.5,67821,28897.56869337355,237.73325257819036
53011,WA,45.7791,-122.4826,481950,Clark County,66.2,2022-09-14,Clark,104658.0,911.0,5.5,76929,21715.530656707127,189.02375765120863
16001,ID,43.4511,-116.2412,469473,Ada County,65.9,2022-09-14,Ada,151552.0,1066.0,3.3,73324,32281.3026521227,227.06311119063292
51153,VA,38.7029,-77.4809,466834,Prince William County,74.5,2022-09-14,Prince William,116131.0,776.0,4.0,111117,24876.294357309023,166.22611035185955
12117,FL,28.717,-81.2363,466695,Seminole County,63.1,2022-09-14,Seminole,124520.0,1198.0,4.1,71930,26681.23721059793,256.698700436045
25013,MA,42.1351,-72.6316,466647,Hampden County,67.7,2022-09-14,Hampden,155085.0,1897.0,7.6,61600,33233.900571524086,406.51713179341135
47093,TN,35.9932,-83.9371,466184,Knox County,61.1,2022-09-14,Knox,147277.0,1482.0,3.3,57886,31592.032330581915,317.9002282360613
32031,NV,40.6656,-119.6643,464182,Washoe County,65.6,2022-09-14,Washoe,121612.0,1269.0,4.3,75232,26199.20634578678,273.3841467355477
6107,CA,36.2202,-118.8005,463955,Tulare County,55.3,2022-09-14,Tulare,156818.0,1529.0,10.7,62058,33800.26080115529,329.5578234958132
36067,NY,43.0058,-76.1946,461591,Onondaga County,74.8,2022-09-14,Onondaga,131673.0,1121.0,4.9,63963,28525.902801397773,242.85568826081962
51810,VA,36.7335,-76.0435,450882,Virginia Beach city,63.4,2022-09-14,Virginia Beach city,105732.0,893.0,3.7,73961,23450.037925665696,198.05625418623944
42133,PA,39.92,-76.7265,447628,York County,60.8,2022-09-14,York,134827.0,1565.0,5.4,71655,30120.323125452385,349.62066716112486
4021,AZ,32.9044,-111.3448,447559,Pinal County,55.4,2022-09-14,Pinal,146915.0,1725.0,4.7,66992,32825.839721690325,385.42404465109627
34005,NJ,39.8777,-74.6681,446301,Burlington County,76.5,2022-09-14,Burlington,125715.0,1287.0,5.3,92471,28168.209347503143,288.37040472685476
6083,CA,34.6729,-120.0169,444895,Santa Barbara County,72.4,2022-09-14,Santa Barbara,111444.0,717.0,5.8,86136,25049.5060632284,161.16162240528664
6095,CA,38.27,-121.9329,444538,Solano County,69.7,2022-09-14,Solano,111460.0,461.0,7.5,83678,25073.222086750742,103.70317048261342
22033,LA,30.5383,-91.0956,443158,East Baton Rouge Parish,57.0,2022-09-14,East Baton Rouge,128568.0,1390.0,5.3,57099,29011.774581526228,313.65788274159553
22051,LA,29.7872,-90.1274,434903,Jefferson Parish,66.6,2022-09-14,Jefferson,133192.0,1396.0,6.0,58586,30625.679749277424,320.9911175595478
6053,CA,36.2171,-121.2388,432977,Monterey County,74.3,2022-09-14,Monterey,114272.0,779.0,8.3,85031,26392.16401795014,179.91717804871854
39095,OH,41.6197,-83.659,430319,Lucas County,59.0,2022-09-14,Lucas,115542.0,1452.0,6.2,51642,26850.313372172735,337.424097007104
12115,FL,27.1845,-82.3315,427766,Sarasota County,71.3,2022-09-14,Sarasota,111917.0,1833.0,3.8,66138,26163.13592010585,428.5053043018847
27037,MN,44.6719,-93.0654,425271,Dakota County,71.0,2022-09-14,Dakota,127158.0,816.0,3.1,90562,29900.463469176124,191.8776497809632
48061,TX,26.1333,-97.5182,422135,Cameron County,80.0,2022-09-14,Cameron,124263.0,2076.0,8.2,44440,29436.791547727626,491.7858031198551
42011,PA,40.4163,-75.926,419062,Berks County,62.5,2022-09-14,Berks,115894.0,1659.0,6.6,70057,27655.57363826832,395.884141248789
33011,NH,42.9153,-71.7161,415305,Hillsborough County,65.4,2022-09-14,Hillsborough,111410.0,954.0,3.6,79222,26826.067588880458,229.7106945497887
41005,OR,45.188,-122.2209,415084,Clackamas County,70.1,2022-09-14,Clackamas,77255.0,724.0,4.8,82539,18611.895423576916,174.42252652475162
45079,SC,34.0218,-80.9031,414660,Richland County,61.5,2022-09-14,Richland,147755.0,970.0,4.1,56993,35632.807601408385,233.9265904596537
1097,AL,30.7872,-88.2058,413977,Mobile County,51.1,2022-09-14,Mobile,127174.0,1721.0,4.7,50871,30720.064158153717,415.72357884616775
45019,SC,32.8346,-79.9531,407543,Charleston County,67.1,2022-09-14,Charleston,130084.0,975.0,3.6,72451,31919.085838794927,239.23855887599592
26049,MI,43.0217,-83.7067,406770,Genesee County,51.1,2022-09-14,Genesee,116302.0,1847.0,7.6,48721,28591.58738353369,454.064950709246
51107,VA,39.0907,-77.6357,405312,Loudoun County,74.8,2022-09-14,Loudoun,87715.0,416.0,3.1,155362,21641.352834359703,102.63698089373123
55133,WI,43.0182,-88.3045,402637,Waukesha County,71.2,2022-09-14,Waukesha,129661.0,1147.0,3.1,92359,32202.95203868497,284.8719814622104
29183,MO,38.782,-90.6749,398472,St. Charles County,62.5,2022-09-14,St. Charles,119485.0,984.0,3.5,90567,29985.795739725752,246.9433234957538
12081,FL,27.4719,-82.3153,393847,Manatee County,63.1,2022-09-14,Manatee,115446.0,1585.0,3.9,63328,29312.397961645005,402.44054163164884
5119,AR,34.77,-92.312,393078,Pulaski County,61.3,2022-09-14,Pulaski,119986.0,1237.0,4.9,56171,30524.730460621045,314.69581100951973
6061,CA,39.0634,-120.7177,391799,Placer County,68.7,2022-09-14,Placer,84288.0,657.0,5.0,100662,21513.071753628774,167.68802370603294
22071,LA,30.0687,-89.9288,391249,Orleans Parish,71.2,2022-09-14,Orleans,105978.0,1165.0,8.3,51704,27087.097986192937,297.7643393337746
39017,OH,39.4386,-84.5756,382129,Butler County,58.0,2022-09-14,Butler,106484.0,1189.0,4.5,69049,27865.982430017088,311.1514697916149
36071,NY,41.4021,-74.3056,382077,Orange County,66.5,2022-09-14,Orange,125143.0,991.0,4.7,78724,32753.34552982776,259.3718020189648
12021,FL,26.1107,-81.3475,379345,Collier County,71.6,2022-09-14,Collier,98035.0,1091.0,3.7,81895,25843.229777643046,287.6009964544149
37067,NC,36.1306,-80.2563,378499,Forsyth County,65.9,2022-09-14,Forsyth,112094.0,871.0,4.9,56158,29615.401890097466,230.1194983342096
41039,OR,43.9387,-122.8479,377749,Lane County,68.5,2022-09-14,Lane,72386.0,619.0,5.5,58818,19162.45972854991,163.86542386611214
18003,IN,41.0909,-85.0666,375520,Allen County,54.4,2022-09-14,Allen,115819.0,1222.0,3.7,61039,30842.29867916489,325.4154239454623
39151,OH,40.8139,-81.3656,371516,Stark County,55.8,2022-09-14,Stark,90206.0,1758.0,5.2,57364,24280.51550942624,473.1963091764554
26161,MI,42.2532,-83.8388,368385,Washtenaw County,72.1,2022-09-14,Washtenaw,100148.0,574.0,4.3,77019,27185.688885269486,155.81524763494713
34021,NJ,40.2834,-74.7018,368085,Mercer County,73.1,2022-09-14,Mercer,97751.0,1305.0,5.2,87581,26556.637733132295,354.53767472187127
48039,TX,29.1897,-95.4521,368062,Brazoria County,59.0,2022-09-14,Brazoria,111163.0,1012.0,6.9,83576,30202.248534214345,274.9536762828002
1089,AL,34.7631,-86.5502,367686,Madison County,63.8,2022-09-14,Madison,105797.0,1001.0,2.7,67810,28773.736285852603,272.2431640040687
42077,PA,40.6127,-75.5924,367338,Lehigh County,74.8,2022-09-14,Lehigh,101959.0,1297.0,6.8,65733,27756.180955958815,353.0808138553594
47065,TN,35.1808,-85.1648,364718,Hamilton County,57.6,2022-09-14,Hamilton,114882.0,1212.0,4.0,61478,31498.85665089192,332.311539326274
12097,FL,28.0626,-81.1495,363666,Osceola County,74.7,2022-09-14,Osceola,135844.0,1215.0,6.3,63018,37354.05564446498,334.0977710316609
48355,TX,27.7254,-97.6134,362151,Nueces County,57.9,2022-09-14,Nueces,108027.0,1551.0,6.9,55727,29829.270111086258,428.2743938301979
12083,FL,29.2102,-82.0567,360210,Marion County,57.9,2022-09-14,Marion,98777.0,2293.0,4.9,48553,27422.059354265566,636.5731101302018
12069,FL,28.7615,-81.7113,356115,Lake County,67.2,2022-09-14,Lake,101959.0,1650.0,4.7,58501,28630.919787147406,463.3334737374163
48027,TX,31.0373,-97.4788,355700,Bell County,61.1,2022-09-14,Bell,78915.0,925.0,5.7,53639,22185.83075625527,260.05060444194544
27003,MN,45.2733,-93.2465,353775,Anoka County,60.6,2022-09-14,Anoka,110960.0,823.0,3.4,84779,31364.56787506183,232.63373613172212
49011,UT,40.99,-112.1115,350761,Davis County,68.2,2022-09-14,Davis,112431.0,424.0,2.4,92253,32053.44949980186,120.880029421743
42129,PA,40.3109,-79.4668,350722,Westmoreland County,59.2,2022-09-14,Westmoreland,91628.0,1455.0,6.3,59349,26125.535324273926,414.85849191097225
8069,CO,40.6664,-105.4612,350523,Larimer County,69.4,2022-09-14,Larimer,99489.0,546.0,4.7,80344,28383.016235739167,155.76723923965045
51041,VA,37.3785,-77.587,348500,Chesterfield County,57.5,2022-09-14,Chesterfield,90226.0,809.0,3.6,83598,25889.813486370156,232.1377331420373
8035,CO,39.3297,-104.9296,344280,Douglas County,74.9,2022-09-14,Douglas,96225.0,501.0,4.1,122290,27949.63401882189,145.52108748692925
45051,SC,33.9214,-78.9966,344186,Horry County,57.8,2022-09-14,Horry,112755.0,1211.0,5.1,55055,32759.903075662576,351.84464214116787
41047,OR,44.9033,-122.5846,343742,Marion County,64.2,2022-09-14,Marion,81979.0,781.0,5.1,64990,23848.99139470882,227.20528768669524
48167,TX,29.3945,-94.9635,337600,Galveston County,60.8,2022-09-14,Galveston,113918.0,876.0,6.7,78465,33743.483412322275,259.478672985782
37051,NC,35.0487,-78.8277,334562,Cumberland County,62.5,2022-09-14,Cumberland,104838.0,696.0,6.9,49160,31335.895887757724,208.03318966290254
18057,IN,40.0725,-86.052,330455,Hamilton County,73.8,2022-09-14,Hamilton,91745.0,691.0,2.2,96359,27763.235538878213,209.10562708992146
34035,NJ,40.5635,-74.6163,330151,Somerset County,77.8,2022-09-14,Somerset,86298.0,1000.0,5.1,115573,26138.948541727874,302.89170712795055
51087,VA,37.538,-77.4058,330076,Henrico County,55.5,2022-09-14,Henrico,81058.0,1006.0,4.0,80105,24557.374665228614,304.7782934839249
36087,NY,41.1524,-74.0241,325213,Rockland County,65.9,2022-09-14,Rockland,107629.0,926.0,4.4,94874,33094.92547960875,284.73646502446087
8013,CO,40.0925,-105.3577,324682,Boulder County,80.1,2022-09-14,Boulder,84028.0,399.0,4.4,88289,25880.091905310426,122.88947339242705
47149,TN,35.8427,-86.4167,324139,Rutherford County,55.4,2022-09-14,Rutherford,109319.0,934.0,3.4,73980,33725.96324416377,288.1479858949401
24027,MD,39.2507,-76.9312,322407,Howard County,87.8,2022-09-14,Howard,57264.0,398.0,4.3,124042,17761.40096213792,123.44645122469426
21067,KY,38.0423,-84.4587,322200,Fayette County,68.0,2022-09-14,Fayette,112313.0,651.0,3.9,60215,34858.162631905645,202.04841713221603
12111,FL,27.3772,-80.472,320914,St. Lucie County,59.6,2022-09-14,St. Lucie,89849.0,1321.0,4.9,59023,27997.84365904884,411.6367624971177
37063,NC,36.036,-78.8766,317665,Durham County,75.1,2022-09-14,Durham,93310.0,366.0,4.1,65619,29373.71129963956,115.21571466796782
42079,PA,41.177,-75.9891,317547,Luzerne County,65.8,2022-09-14,Luzerne,85102.0,1467.0,8.3,52281,26799.81231124841,461.97885667318536
12033,FL,30.669,-87.363,316691,Escambia County,56.6,2022-09-14,Escambia,89774.0,1403.0,4.5,57089,28347.505928491813,443.0185890978904
31109,NE,40.7842,-96.6878,315976,Lancaster County,67.9,2022-09-14,Lancaster,88392.0,454.0,2.4,65819,27974.27652733119,143.68179861761652
8123,CO,40.5548,-104.3925,315389,Weld County,62.4,2022-09-14,Weld,99104.0,728.0,5.7,77937,31422.782658875232,230.82605924746898
45083,SC,34.9309,-81.9908,313791,Spartanburg County,44.7,2022-09-14,Spartanburg,107801.0,1569.0,4.0,53485,34354.39512286841,500.014340755471
39093,OH,41.2956,-82.151,309134,Lorain County,64.9,2022-09-14,Lorain,79366.0,1006.0,5.8,59954,25673.656084416467,325.42522013107583
48303,TX,33.6102,-101.8205,308392,Lubbock County,49.2,2022-09-14,Lubbock,105083.0,1357.0,4.5,56477,34074.48961062544,440.0243845495344
33015,NH,42.9876,-71.1254,308211,Rockingham County,69.8,2022-09-14,Rockingham,77706.0,586.0,3.5,96775,25211.94895704566,190.12948921355823
17111,IL,42.3244,-88.4523,307291,McHenry County,68.1,2022-09-14,McHenry,90409.0,523.0,4.7,89730,29421.297727561174,170.196979410396
36001,NY,42.6002,-73.9736,306165,Albany County,76.2,2022-09-14,Albany,71924.0,555.0,4.4,70629,23491.907958127154,181.27480280241045
29510,MO,38.6359,-90.2451,304709,St. Louis city,60.8,2022-09-14,St. Louis city,69422.0,812.0,6.4,45773,22783.048744868054,266.48375991519777
42095,PA,40.7542,-75.3076,304233,Northampton County,69.7,2022-09-14,Northampton,91283.0,1159.0,5.9,73903,30004.305910272717,380.9580157313638
45063,SC,33.9023,-81.2722,295033,Lexington County,56.8,2022-09-14,Lexington,112885.0,902.0,3.0,62839,38261.821558944255,305.7285117258069
23005,ME,43.8465,-70.399,294520,Cumberland County,90.0,2022-09-14,Cumberland,59887.0,413.0,4.0,75455,20333.763411652857,140.22816786635883
36027,NY,41.7651,-73.7429,293524,Dutchess County,71.7,2022-09-14,Dutchess,76154.0,694.0,4.4,79276,25944.726836647085,236.4372248947275
2020,AK,61.1508,-149.1091,292090,Anchorage Municipality,68.7,2022-09-14,Anchorage,119541.0,557.0,5.8,84577,40926.08442603307,190.69464890958267
12073,FL,30.458,-84.2779,291863,Leon County,57.9,2022-09-14,Leon,105459.0,725.0,4.2,61403,36133.048724915454,248.40421704703917
34015,NJ,39.7173,-75.1414,291745,Gloucester County,63.6,2022-09-14,Gloucester,82455.0,1003.0,6.0,87220,28262.69516187081,343.7933812061903
29077,MO,37.258,-93.342,291574,Greene County,50.3,2022-09-14,Greene,79266.0,1086.0,3.4,46934,27185.55152379842,372.4611933848697
26065,MI,42.5971,-84.3735,290923,Ingham County,57.8,2022-09-14,Ingham,76780.0,820.0,5.6,62711,26391.863139043664,281.8615234959079
13051,GA,32.0043,-81.1329,289649,Chatham County,57.4,2022-09-14,Chatham,75229.0,950.0,4.3,56357,25972.470127637243,327.98317964156615
26139,MI,42.9598,-85.9961,289162,Ottawa County,58.4,2022-09-14,Ottawa,83280.0,830.0,4.1,77465,28800.46479136263,287.03633257481965
13063,GA,33.5419,-84.3577,287560,Clayton County,44.9,2022-09-14,Clayton,73681.0,1031.0,6.5,49370,25622.82654054806,358.53387119209907
53067,WA,46.9258,-122.8332,284698,Thurston County,70.6,2022-09-14,Thurston,58413.0,462.0,5.2,79769,20517.530857259273,162.27722007179537
17201,IL,42.3363,-89.1609,283635,Winnebago County,59.2,2022-09-14,Winnebago,91397.0,889.0,8.4,54971,32223.456202513797,313.4309940592663
6079,CA,35.3871,-120.4044,282517,San Luis Obispo County,61.8,2022-09-14,San Luis Obispo,69620.0,519.0,5.2,79455,24642.764860167707,183.7057592994404
40027,OK,35.2031,-97.3265,282189,Cleveland County,58.0,2022-09-14,Cleveland,91472.0,841.0,3.2,64011,32415.154382346584,298.0272087147266
42043,PA,40.4154,-76.7795,277071,Dauphin County,65.6,2022-09-14,Dauphin,66788.0,1009.0,6.3,63265,24105.012794554463,364.16658546004453
48479,TX,27.7611,-99.3316,274847,Webb County,95.0,2022-09-14,Webb,105488.0,1057.0,6.3,56588,38380.626312093635,384.57760135639097
45091,SC,34.9748,-81.1845,273887,York County,51.2,2022-09-14,York,88727.0,700.0,3.7,72579,32395.47696677827,255.57985592598408
6047,CA,37.1919,-120.7177,273661,Merced County,52.2,2022-09-14,Merced,83084.0,856.0,10.4,58998,30360.19016228107,312.79575825565206
5007,AR,36.3387,-94.2561,273510,Benton County,56.3,2022-09-14,Benton,73243.0,893.0,2.8,78678,26778.91119154693,326.4962889839494
6087,CA,37.0562,-122.0018,273170,Santa Cruz County,80.0,2022-09-14,Santa Cruz,65645.0,274.0,6.9,93015,24030.823296848117,100.3038400995717
42049,PA,41.9925,-80.0327,272046,Erie County,61.3,2022-09-14,Erie,65819.0,816.0,7.3,55181,24194.07012049433,299.9492732846651
18141,IN,41.6167,-86.2899,270881,St. Joseph County,60.4,2022-09-14,St. Joseph,79391.0,913.0,4.2,60070,29308.441714258293,337.0483717942565
53035,WA,47.613,-122.6716,268945,Kitsap County,70.8,2022-09-14,Kitsap,48401.0,389.0,5.0,76814,17996.61640855937,144.63923850601424
12001,FL,29.6748,-82.3577,268105,Alachua County,67.7,2022-09-14,Alachua,83099.0,739.0,3.7,51995,30994.946009958785,275.63827604856306
9011,CT,41.4867,-72.1014,266868,New London County,80.6,2022-09-14,New London,66930.0,713.0,6.9,77202,25079.8147398714,267.17328417045127
34001,NJ,39.4777,-74.661,264650,Atlantic County,68.8,2022-09-14,Atlantic,81851.0,1048.0,9.5,61377,30928.01813716229,395.9947099943321
17119,IL,38.8297,-89.9049,264403,Madison County,63.2,2022-09-14,Madison,81475.0,888.0,4.9,63903,30814.70331274607,335.8509547924948
26077,MI,42.2455,-85.5312,264322,Kalamazoo County,62.5,2022-09-14,Kalamazoo,70162.0,715.0,5.0,63279,26544.13934519261,270.5034011546523
55009,WI,44.4525,-88.0037,262559,Brown County,66.2,2022-09-14,Brown,96001.0,584.0,3.4,64905,36563.59142135672,222.42619754036238
17163,IL,38.4703,-89.9284,261186,St. Clair County,64.5,2022-09-14,St. Clair,81608.0,807.0,6.1,61863,31245.166279969068,308.9752130665503
37021,NC,35.6112,-82.5301,259576,Buncombe County,70.6,2022-09-14,Buncombe,64283.0,645.0,4.2,66156,24764.61614324899,248.48214010540266
6041,CA,38.0735,-122.7235,259441,Marin County,90.7,2022-09-14,Marin,49814.0,305.0,4.5,127601,19200.51186975073,117.56044726932136
27163,MN,45.0388,-92.8838,259072,Washington County,71.8,2022-09-14,Washington,76963.0,513.0,2.9,101409,29707.185647233204,198.01445158102766
22103,LA,30.4102,-89.9583,258447,St. Tammany Parish,57.8,2022-09-14,St. Tammany,85292.0,895.0,3.8,67462,33001.73730010408,346.2992412370815
24021,MD,39.4722,-77.398,255955,Frederick County,80.1,2022-09-14,Frederick,53717.0,552.0,4.8,99254,20986.892227149303,215.6629094958098
12109,FL,29.9016,-81.4407,255410,St. Johns County,71.5,2022-09-14,St. Johns,73589.0,631.0,3.0,94343,28812.106025605888,247.05375670490585
49057,UT,41.2698,-111.9134,255284,Weber County,62.3,2022-09-14,Weber,79969.0,459.0,2.9,72091,31325.504144403883,179.79975243258488
48309,TX,31.5524,-97.2018,254045,McLennan County,52.0,2022-09-14,McLennan,69776.0,931.0,4.9,55148,27466.000118089316,366.47050719360743
13057,GA,34.2439,-84.4762,253780,Cherokee County,50.6,2022-09-14,Cherokee,71961.0,663.0,2.6,90675,28355.662384742693,261.24990148947904
24025,MD,39.5611,-76.3171,253736,Harford County,71.2,2022-09-14,Harford,45230.0,616.0,4.8,102537,17825.614024024973,242.77201500772458
48245,TX,29.8841,-94.1629,253136,Jefferson County,51.6,2022-09-14,Jefferson,59829.0,863.0,10.0,48808,23635.1210416535,340.9234561658555
42041,PA,40.1636,-77.2655,251487,Cumberland County,72.6,2022-09-14,Cumberland,57979.0,925.0,4.6,69546,23054.472000540783,367.81225272081656
53077,WA,46.457,-120.7385,250649,Yakima County,63.8,2022-09-14,Yakima,81691.0,833.0,7.0,56353,32591.791708724155,332.3372524925294
29047,MO,39.3105,-94.4209,246480,Clay County,55.3,2022-09-14,Clay,30760.0,383.0,4.9,74950,12479.714378448556,155.38786108406362
51710,VA,36.8945,-76.259,244300,Norfolk city,70.3,2022-09-14,Norfolk city,49493.0,501.0,5.7,51401,20259.10765452313,205.07572656569792
22055,LA,30.2068,-92.0639,243692,Lafayette Parish,51.0,2022-09-14,Lafayette,72442.0,517.0,4.5,59362,29726.86834200548,212.1530456477849
22017,LA,32.5806,-93.8823,243243,Caddo Parish,49.3,2022-09-14,Caddo,81030.0,1198.0,6.2,43216,33312.36664569998,492.51160362271474
51550,VA,36.6778,-76.3023,242647,Chesapeake city,53.3,2022-09-14,Chesapeake city,58617.0,530.0,3.8,80402,24157.314947227864,218.42429537558675
13117,GA,34.2255,-84.1251,236605,Forsyth County,53.9,2022-09-14,Forsyth,64223.0,429.0,2.5,116690,27143.551488768204,181.3148496439213
51013,VA,38.8786,-77.1011,236434,Arlington County,73.1,2022-09-14,Arlington,60220.0,337.0,3.0,125004,25470.110051853793,142.53449165517648
5143,AR,35.9791,-94.2156,236198,Washington County,58.6,2022-09-14,Washington,76253.0,653.0,2.9,57712,32283.507904385307,276.4629675103091
37179,NC,34.9884,-80.5307,235767,Union County,58.1,2022-09-14,Union,72502.0,509.0,3.9,90920,30751.547078259468,215.89111283597788
28049,MS,32.2667,-90.4429,235604,Hinds County,59.6,2022-09-14,Hinds,62604.0,820.0,6.2,44671,26571.705064430145,348.0416291743773
39165,OH,39.4277,-84.1668,232540,Warren County,65.8,2022-09-14,Warren,66765.0,603.0,4.0,90600,28711.189472778875,259.31022619764343
4025,AZ,34.5998,-112.5537,232396,Yavapai County,48.3,2022-09-14,Yavapai,54789.0,1277.0,4.1,58860,23575.706982908483,549.4931065939173
47187,TN,35.8938,-86.8987,232380,Williamson County,67.4,2022-09-14,Williamson,70846.0,422.0,2.5,118257,30487.133143988292,181.5991049143644
37129,NC,34.2328,-77.8847,231448,New Hanover County,66.7,2022-09-14,New Hanover,59752.0,427.0,4.2,65615,25816.598112751028,184.49068473263972
10005,DE,38.6606,-75.39,230249,Sussex County,70.3,2022-09-14,Sussex,71437.0,898.0,4.8,69829,31025.97622573822,390.01255162888873
48423,TX,32.375,-95.2692,230184,Smith County,46.5,2022-09-14,Smith,53049.0,983.0,5.1,60735,23046.345532269836,427.04966461613316
13151,GA,33.453,-84.1542,229994,Henry County,45.3,2022-09-14,Henry,67304.0,720.0,4.2,69620,29263.37208796751,313.0516448255172
39085,OH,41.6963,-81.2373,229755,Lake County,66.6,2022-09-14,Lake,55989.0,753.0,5.1,69853,24369.001762747273,327.74041914212967
36091,NY,43.1074,-73.8639,229313,Saratoga County,80.7,2022-09-14,Saratoga,56312.0,362.0,3.8,83427,24556.82843973085,157.8628337686917
51760,VA,37.5295,-77.4756,229233,Richmond city,42.8,2022-09-14,Richmond city,56264.0,535.0,5.5,54815,24544.459131102412,233.3869905292868
36065,NY,43.2417,-75.4358,229074,Oneida County,64.0,2022-09-14,Oneida,63419.0,828.0,5.1,58696,27684.94023765246,361.4552502684722
39099,OH,41.0146,-80.7763,228452,Mahoning County,58.2,2022-09-14,Mahoning,61080.0,1123.0,6.3,48937,26736.469805473364,491.56934498275353
1101,AL,32.2203,-86.2076,226451,Montgomery County,53.7,2022-09-14,Montgomery,66015.0,990.0,4.9,49607,29152.00197835293,437.18067043201404
48041,TX,30.6608,-96.3024,226370,Brazos County,52.0,2022-09-14,Brazos,70327.0,427.0,4.1,53570,31067.279233113924,188.62923532270176
19113,IA,42.079,-91.599,225601,Linn County,67.7,2022-09-14,Linn,60152.0,621.0,5.0,69559,26663.002380308597,275.26473730169636
29099,MO,38.2611,-90.5377,224777,Jefferson County,45.7,2022-09-14,Jefferson,62175.0,684.0,4.1,67191,27660.74820822415,304.3015966936119
53073,WA,48.8258,-121.7196,224538,Whatcom County,73.2,2022-09-14,Whatcom,46193.0,328.0,6.0,70463,20572.464349018872,146.07772403780206
16027,ID,43.6251,-116.7093,223890,Canyon County,47.5,2022-09-14,Canyon,67060.0,704.0,4.0,57886,29952.208673902365,314.4401268480057
6007,CA,39.6669,-121.6007,223344,Butte County,54.7,2022-09-14,Butte,47929.0,453.0,6.9,54718,21459.721326742605,202.82613367719753
48209,TX,30.0579,-98.0312,222827,Hays County,63.1,2022-09-14,Hays,73204.0,532.0,4.1,77511,32852.392214588,238.7502412185238
37071,NC,35.2944,-81.1803,222119,Gaston County,52.9,2022-09-14,Gaston,75439.0,915.0,5.2,60622,33963.3259649107,411.94134675556796
45015,SC,33.1973,-79.9522,222103,Berkeley County,53.6,2022-09-14,Berkeley,61650.0,456.0,3.6,70371,27757.391840722546,205.3101488948821
41029,OR,42.4322,-122.7285,218781,Jackson County,59.1,2022-09-14,Jackson,50486.0,581.0,5.4,57334,23076.044080610292,265.56236601898706
6113,CA,38.6866,-121.9016,218774,Yolo County,71.7,2022-09-14,Yolo,51306.0,334.0,5.8,80668,23451.598453198276,152.66896431934325
1003,AL,30.7276,-87.7226,218289,Baldwin County,52.2,2022-09-14,Baldwin,65088.0,702.0,3.0,71135,29817.352225719118,321.5920179211962
35013,NM,32.3526,-106.8327,217696,Dona Ana County,77.6,2022-09-14,Do√±a Ana,72611.0,899.0,6.6,46547,33354.31059826547,412.9611935910628
1117,AL,33.2643,-86.6607,216350,Shelby County,37.1,2022-09-14,Shelby,70051.0,469.0,2.1,88444,32378.553270164084,216.77836838456207
12019,FL,29.9831,-81.8579,215294,Clay County,55.1,2022-09-14,Clay,63061.0,914.0,3.5,72520,29290.64442111717,424.53575111243237
4027,AZ,32.7695,-113.9057,211931,Yuma County,72.6,2022-09-14,Yuma,67559.0,1203.0,12.9,54278,31877.828161052417,567.6375801558054
37025,NC,35.3868,-80.5519,211605,Cabarrus County,59.7,2022-09-14,Cabarrus,65966.0,527.0,4.4,79736,31174.121594480283,249.0489355166466
4015,AZ,35.7041,-113.7579,210998,Mohave County,42.6,2022-09-14,Mohave,63455.0,1538.0,5.5,46678,30073.74477483199,728.9168617712016
42069,PA,41.4367,-75.6093,210162,Lackawanna County,72.1,2022-09-14,Lackawanna,52385.0,825.0,6.9,56911,24926.009459369438,392.5543152425272
36063,NY,43.2001,-78.7453,210145,Niagara County,67.5,2022-09-14,Niagara,55528.0,605.0,5.7,54963,26423.659853910398,287.8964524494992
17019,IL,40.1401,-88.1992,210006,Champaign County,66.1,2022-09-14,Champaign,79568.0,309.0,4.8,64387,37888.44128263002,147.13865318133767
1125,AL,33.2896,-87.5251,208854,Tuscaloosa County,44.6,2022-09-14,Tuscaloosa,65131.0,809.0,3.6,56610,31184.942591475385,387.35193005640303
12091,FL,30.6913,-86.5917,207430,Okaloosa County,64.9,2022-09-14,Okaloosa,58813.0,729.0,3.3,65977,28353.1793858169,351.4438605794726
42125,PA,40.1894,-80.2483,207081,Washington County,65.6,2022-09-14,Washington,59352.0,686.0,6.6,65808,28661.24849696496,331.2713382686002
28047,MS,30.5122,-89.1161,206169,Harrison County,56.6,2022-09-14,Harrison,62096.0,687.0,5.5,47505,30118.980060047823,333.2217743695706
23031,ME,43.4782,-70.7144,206074,York County,81.7,2022-09-14,York,47102.0,316.0,4.5,67965,22856.837834952494,153.34297388316818
39025,OH,39.0476,-84.1517,205616,Clermont County,58.0,2022-09-14,Clermont,59801.0,575.0,4.3,72740,29083.82616138822,279.6474982491635
39041,OH,40.2784,-83.0049,205454,Delaware County,76.9,2022-09-14,Delaware,51761.0,278.0,3.6,114423,25193.47396497513,135.3100937436117
18039,IN,41.5974,-85.8587,205184,Elkhart County,44.7,2022-09-14,Elkhart,58442.0,757.0,2.5,66801,28482.727698066123,368.93714909544605
47125,TN,36.4969,-87.3829,204992,Montgomery County,60.9,2022-09-14,Montgomery,58420.0,601.0,4.5,60779,28498.673118950985,293.18217296284735
37101,NC,35.5178,-78.3657,203308,Johnston County,54.8,2022-09-14,Johnston,69489.0,475.0,4.2,63882,34179.176421980446,233.63566608298737
22019,LA,30.2293,-93.358,202858,Calcasieu Parish,43.3,2022-09-14,Calcasieu,62871.0,723.0,5.6,57252,30992.615524159755,356.40694475938835
13245,GA,33.3596,-82.0736,202178,Richmond County,50.5,2022-09-14,Richmond,57183.0,921.0,5.3,43942,28283.49276380219,455.53917834779253
13139,GA,34.3169,-83.8197,201434,Hall County,46.0,2022-09-14,Hall,60953.0,881.0,2.7,67735,30259.539104619875,437.36409940725
53005,WA,46.2398,-119.5112,200715,Benton County,57.8,2022-09-14,Benton,59121.0,506.0,5.6,75882,29455.1976683357,252.09874697954814
45007,SC,34.5193,-82.6378,200183,Anderson County,41.2,2022-09-14,Anderson,64750.0,1025.0,3.7,52667,32345.403955380825,512.0314911855652
27137,MN,47.6032,-92.4707,199499,St. Louis County,68.0,2022-09-14,St. Louis,55312.0,568.0,3.8,57972,27725.452257906054,284.71320658248914
39155,OH,41.3172,-80.7611,199144,Trumbull County,55.9,2022-09-14,Trumbull,48024.0,967.0,6.4,48929,24115.213112119873,485.57827501707305
37133,NC,34.7321,-77.4321,198377,Onslow County,61.7,2022-09-14,Onslow,61083.0,408.0,5.1,52885,30791.3719836473,205.6690039671938
17167,IL,39.7582,-89.6589,195963,Sangamon County,66.1,2022-09-14,Sangamon,68778.0,460.0,5.5,60541,35097.44186402535,234.7381903726724
55101,WI,42.7475,-88.0612,195859,Racine County,61.9,2022-09-14,Racine,65164.0,712.0,4.7,66562,33270.8734344605,363.52682286747097
13215,GA,32.51,-84.8771,195418,Muscogee County,45.9,2022-09-14,Muscogee,43275.0,872.0,5.3,44959,22144.83824417403,446.22296820149626
18157,IN,40.3886,-86.8941,193302,Tippecanoe County,59.2,2022-09-14,Tippecanoe,57536.0,424.0,3.3,52806,29764.823954227064,219.3458939897156
36007,NY,42.1602,-75.8196,192042,Broome County,64.7,2022-09-14,Broome,53516.0,547.0,5.2,52510,27866.820799616748,284.83352599952093
41017,OR,43.915,-121.2282,191749,Deschutes County,70.4,2022-09-14,Deschutes,57423.0,336.0,5.3,66467,29946.96191375183,175.22907551017215
46099,SD,43.6742,-96.7915,191682,Minnehaha County,69.6,2022-09-14,Minnehaha,61308.0,534.0,2.9,64526,31984.223870785987,278.58640873947473
26145,MI,43.335,-84.0532,191166,Saginaw County,53.6,2022-09-14,Saginaw,57795.0,995.0,7.1,51893,30232.886601173846,520.4900453009426
26093,MI,42.6029,-83.9115,190832,Livingston County,60.7,2022-09-14,Livingston,53313.0,487.0,4.2,87686,27937.138425421315,255.19828959503647
12053,FL,28.5535,-82.4245,190700,Hernando County,55.8,2022-09-14,Hernando,50703.0,1203.0,5.1,52108,26587.83429470372,630.8337703198741
6017,CA,38.7787,-120.5247,190345,El Dorado County,63.7,2022-09-14,El Dorado,36235.0,229.0,5.7,87792,19036.48637999422,120.30786203998004
45013,SC,32.3855,-80.7302,189732,Beaufort County,68.6,2022-09-14,Beaufort,49938.0,390.0,3.5,76515,26320.28334703687,205.5530959458605
42019,PA,40.912,-79.9133,187798,Butler County,65.8,2022-09-14,Butler,51149.0,780.0,5.6,74721,27236.17929903407,415.33988647376435
47165,TN,36.4694,-86.4604,187680,Sumner County,49.3,2022-09-14,Sumner,60549.0,765.0,3.3,72325,32261.828644501278,407.6086956521739
55087,WI,44.4161,-88.4649,186829,Outagamie County,65.5,2022-09-14,Outagamie,60609.0,423.0,3.1,70727,32440.895150110526,226.4102468032265
12015,FL,26.9055,-81.9123,185926,Charlotte County,66.7,2022-09-14,Charlotte,44522.0,900.0,4.4,58368,23946.086077256543,484.06355216591544
31153,NE,41.1129,-96.1119,183956,Sarpy County,67.5,2022-09-14,Sarpy,55371.0,306.0,2.4,83104,30100.132640414013,166.34412576920568
28033,MS,34.8753,-89.9912,182256,DeSoto County,56.6,2022-09-14,DeSoto,56972.0,566.0,4.4,66532,31259.327539285405,310.55219032569573
18163,IN,38.0249,-87.5859,181548,Vanderburgh County,59.5,2022-09-14,Vanderburgh,65844.0,651.0,3.6,49482,36268.09438826096,358.58285412122416
9005,CT,41.7925,-73.2453,181143,Litchfield County,76.9,2022-09-14,Litchfield,37611.0,479.0,5.5,79512,20763.153972276046,264.4319681135898
17143,IL,40.788,-89.76,181111,Peoria County,62.5,2022-09-14,Peoria,54919.0,558.0,7.2,53506,30323.392836437324,308.0983485265942
54039,WV,38.3366,-81.5281,181014,Kanawha County,66.7,2022-09-14,Kanawha,55341.0,791.0,5.2,47830,30572.773376644902,436.9827748129979
6025,CA,33.0395,-115.3653,180580,Imperial County,95.0,2022-09-14,Imperial,80339.0,956.0,17.3,47599,44489.42297042862,529.405249750803
12005,FL,30.2652,-85.6203,180076,Bay County,54.2,2022-09-14,Bay,52344.0,851.0,3.9,61332,29067.726959728112,472.5782447411093
37147,NC,35.5933,-77.3745,179961,Pitt County,56.7,2022-09-14,Pitt,61980.0,271.0,5.0,49955,34440.7955056929,150.5881829952045
38017,ND,46.933,-97.248,179937,Cass County,61.9,2022-09-14,Cass,66263.0,333.0,2.9,61338,36825.66676114417,185.06477267043465
29019,MO,38.9906,-92.3097,179704,Boone County,63.3,2022-09-14,Boone,51444.0,271.0,3.0,62673,28627.075635489473,150.8035436050394
12113,FL,30.7004,-87.0219,179587,Santa Rosa County,55.0,2022-09-14,Santa Rosa,55969.0,663.0,3.5,71583,31165.396158964737,369.18039724478945
51700,VA,37.1051,-76.5185,179582,Newport News city,52.7,2022-09-14,Newport News city,44314.0,425.0,5.6,60048,24676.192491452373,236.6606898241472
48139,TX,32.3484,-96.7946,179484,Ellis County,54.7,2022-09-14,Ellis,54753.0,599.0,4.5,79849,30505.783245303202,333.7344832965613
6089,CA,40.7637,-122.0405,179267,Shasta County,50.8,2022-09-14,Shasta,41807.0,687.0,6.8,59108,23321.07973023479,383.2272532033224
10001,DE,39.086,-75.5686,179124,Kent County,57.6,2022-09-14,Kent,59312.0,689.0,6.2,61538,33112.257430606725,384.64973984502353
39103,OH,41.1176,-81.8997,179116,Medina County,65.1,2022-09-14,Medina,46017.0,521.0,4.3,79504,25691.172201255053,290.8729538399696
37097,NC,35.807,-80.8734,178853,Iredell County,55.4,2022-09-14,Iredell,56345.0,506.0,4.6,61892,31503.525241399362,282.91390136033505
36111,NY,41.8881,-74.2586,178371,Ulster County,74.3,2022-09-14,Ulster,38501.0,384.0,4.7,66060,21584.78676466466,215.2816321038734
20177,KS,39.0415,-95.7565,177293,Shawnee County,63.2,2022-09-14,Shawnee,55901.0,657.0,3.1,56191,31530.291664081495,370.57300626646287
39089,OH,40.0916,-82.4831,175409,Licking County,55.7,2022-09-14,Licking,48196.0,491.0,4.1,68982,27476.35526113255,279.9172220353573
26121,MI,43.2912,-86.152,173679,Muskegon County,55.8,2022-09-14,Muskegon,47241.0,674.0,7.5,58445,27200.179641752886,388.0722482280529
19163,IA,41.6371,-90.6233,172938,Scott County,62.4,2022-09-14,Scott,46279.0,417.0,5.4,67038,26760.457505001796,241.12687784061342
17113,IL,40.4909,-88.8473,172164,McLean County,64.9,2022-09-14,McLean,59712.0,348.0,4.6,71919,34683.20903324737,202.13285007318603
49053,UT,37.2804,-113.5048,172127,Washington County,53.3,2022-09-14,Washington,48614.0,482.0,2.9,71904,28243.099571827777,280.0257949072487
48251,TX,32.379,-97.3665,171359,Johnson County,46.4,2022-09-14,Johnson,49077.0,758.0,4.9,67382,28639.873015131972,442.3461854936128
48329,TX,31.8691,-102.0316,171238,Midland County,43.5,2022-09-14,Midland,45039.0,505.0,5.7,92117,26301.98904448779,294.91117625760637
55139,WI,44.0689,-88.6447,170924,Winnebago County,62.5,2022-09-14,Winnebago,59138.0,401.0,3.2,64653,34599.00306569001,234.60719384053732
45003,SC,33.5443,-81.6347,169947,Aiken County,47.4,2022-09-14,Aiken,47977.0,444.0,3.4,57128,28230.565999988234,261.25792158731844
18127,IN,41.4603,-87.0671,169482,Porter County,59.1,2022-09-14,Porter,44140.0,581.0,3.9,78732,26044.063676378613,342.8092658807425
55059,WI,42.5769,-88.0424,168998,Kenosha County,61.7,2022-09-14,Kenosha,51414.0,666.0,4.3,70368,30422.84524077208,394.0875039941301
42089,PA,41.0581,-75.3395,168824,Monroe County,61.5,2022-09-14,Monroe,43287.0,557.0,7.7,71686,25640.311804008907,329.9293939250344
24013,MD,39.5629,-77.0225,168233,Carroll County,73.3,2022-09-14,Carroll,25485.0,430.0,4.2,104817,15148.633145696742,255.59789102019224
39057,OH,39.6915,-83.8899,167867,Greene County,63.8,2022-09-14,Greene,43928.0,524.0,4.3,71673,26168.335646672662,312.1518821447932
8101,CO,38.1735,-104.5127,167412,Pueblo County,57.9,2022-09-14,Pueblo,56208.0,838.0,7.9,50885,33574.654146656154,500.56148902109766
37057,NC,35.7933,-80.2128,166837,Davidson County,49.6,2022-09-14,Davidson,50352.0,454.0,4.5,56067,30180.355676498617,272.1218914269616
18063,IN,39.7695,-86.51,166806,Hendricks County,74.9,2022-09-14,Hendricks,45098.0,576.0,2.5,86905,27036.197738690455,345.3113197367001
21117,KY,38.9334,-84.5333,166552,Kenton County,61.8,2022-09-14,Kenton,52670.0,448.0,4.2,66015,31623.757144915704,268.98506172246505
37001,NC,36.0437,-79.3994,166144,Alamance County,61.8,2022-09-14,Alamance,55629.0,523.0,4.8,53220,33482.40080893682,314.78717257318954
20209,KS,39.1146,-94.7646,165447,Wyandotte County,59.7,2022-09-14,Wyandotte,51992.0,526.0,4.7,52223,31425.169389593044,317.9265867619237
42007,PA,40.6823,-80.3493,164781,Beaver County,53.0,2022-09-14,Beaver,45683.0,778.0,7.2,56649,27723.463263361675,472.14181246624304
13223,GA,33.9206,-84.8673,164440,Paulding County,38.1,2022-09-14,Paulding,43832.0,452.0,3.0,77755,26655.315008513742,274.8722938457796
44003,RI,41.6721,-71.5931,164122,Kent County,80.0,2022-09-14,Kent,58040.0,524.0,5.2,82413,35363.936583760864,319.2746859043882
1081,AL,32.6011,-85.3555,163461,Lee County,41.3,2022-09-14,Lee,43774.0,349.0,2.8,58963,26779.476450040067,213.5065856687528
50007,VT,44.4608,-73.0808,163414,Chittenden County,75.8,2022-09-14,Chittenden,37518.0,188.0,2.8,80539,22958.8652135068,115.04522256355024
48187,TX,29.583,-97.9486,163030,Guadalupe County,55.7,2022-09-14,Guadalupe,43322.0,413.0,4.4,78909,26573.023369931914,253.32760841562902
9007,CT,41.4632,-72.5351,162742,Middlesex County,85.1,2022-09-14,Middlesex,35045.0,495.0,5.2,89970,21534.08462474346,304.1624165857615
55105,WI,42.6712,-89.0716,162532,Rock County,70.5,2022-09-14,Rock,50470.0,414.0,4.4,66138,31052.346614820464,254.71907070607637
39133,OH,41.1677,-81.1974,162476,Portage County,58.2,2022-09-14,Portage,39706.0,457.0,4.7,64250,24438.070853541445,281.2723109874689
42027,PA,40.9193,-77.82,162264,Centre County,61.3,2022-09-14,Centre,40858.0,369.0,4.6,62795,25179.95365577084,227.40718828575655
48135,TX,31.8692,-102.5427,162067,Ector County,43.4,2022-09-14,Ector,41404.0,716.0,8.3,62669,25547.458767053133,441.79259195271095
16055,ID,47.6744,-116.7018,161676,Kootenai County,47.3,2022-09-14,Kootenai,45137.0,630.0,4.3,66959,27918.182043098543,389.66822533956804
24017,MD,38.5073,-76.9922,161448,Charles County,72.4,2022-09-14,Charles,34747.0,377.0,5.7,102681,21522.099995044842,233.51171894356077
25015,MA,42.3402,-72.6638,161361,Hampshire County,68.7,2022-09-14,Hampshire,35540.0,382.0,4.7,73864,22025.14857989229,236.73626216991713
45035,SC,33.0793,-80.4067,161309,Dorchester County,54.6,2022-09-14,Dorchester,65546.0,511.0,3.6,62928,40633.814604268824,316.78331649195025
12085,FL,27.0775,-80.4315,160420,Martin County,64.7,2022-09-14,Martin,37311.0,694.0,3.6,72736,23258.321904999375,432.614387233512
30111,MT,45.9373,-108.2744,160390,Yellowstone County,52.6,2022-09-14,Yellowstone,47649.0,575.0,3.2,58374,29708.211235114406,358.5011534384937
27145,MN,45.5521,-94.613,159788,Stearns County,60.2,2022-09-14,Stearns,56765.0,385.0,3.6,66317,35525.19588454702,240.94425113275088
26147,MI,42.9341,-82.6806,159285,St. Clair County,49.9,2022-09-14,St. Clair,45980.0,860.0,5.9,59138,28866.49715918009,539.9127350346863
36083,NY,42.7111,-73.5097,159013,Rensselaer County,71.9,2022-09-14,Rensselaer,38210.0,280.0,4.4,71457,24029.481866262508,176.08623194330025
37035,NC,35.662,-81.2151,158507,Catawba County,58.2,2022-09-14,Catawba,55370.0,635.0,4.7,52737,34932.21119572006,400.61322212899114
51510,VA,38.8185,-77.0861,158309,Alexandria city,65.0,2022-09-14,Alexandria city,41275.0,202.0,3.8,99763,26072.427973141137,127.59855725195662
26075,MI,42.2485,-84.4234,158174,Jackson County,53.1,2022-09-14,Jackson,50852.0,630.0,5.7,57267,32149.405085538714,398.2955479408752
47163,TN,36.5129,-82.3042,157707,Sullivan County,57.5,2022-09-14,Sullivan,53841.0,753.0,4.2,48968,34139.89233198273,477.4677091061272
12061,FL,27.6943,-80.6062,156964,Indian River County,68.5,2022-09-14,Indian River,39883.0,713.0,4.7,72934,25409.010983410208,454.24428531382995
27109,MN,44.0038,-92.4018,156446,Olmsted County,78.5,2022-09-14,Olmsted,49275.0,199.0,2.8,82683,31496.49080193805,127.20043976835458
39045,OH,39.7516,-82.6306,156204,Fairfield County,59.1,2022-09-14,Fairfield,43827.0,439.0,4.3,74987,28057.54013981716,281.0427389823564
18081,IN,39.49,-86.1016,156148,Johnson County,60.9,2022-09-14,Johnson,47641.0,635.0,2.6,76868,30510.157030509516,406.6654712196122
6039,CA,37.2181,-119.7626,155925,Madera County,55.2,2022-09-14,Madera,51750.0,373.0,8.8,68744,33189.03318903319,239.21757255090589
13153,GA,32.459,-83.6662,155317,Houston County,51.4,2022-09-14,Houston,46842.0,521.0,3.6,69442,30158.965213080348,335.4429972250301
36093,NY,42.8181,-74.0586,155086,Schenectady County,74.5,2022-09-14,Schenectady,39986.0,332.0,4.9,66292,25783.113885199182,214.0747714171492
42055,PA,39.9274,-77.7213,154954,Franklin County,51.0,2022-09-14,Franklin,46145.0,738.0,5.1,57812,29779.80561973231,476.27037701511415
22073,LA,32.4784,-92.1549,154679,Ouachita Parish,46.2,2022-09-14,Ouachita,58911.0,786.0,5.0,45251,38085.97159278247,508.1491346595207
13073,GA,33.5441,-82.2641,154257,Columbia County,51.7,2022-09-14,Columbia,40857.0,409.0,2.7,87489,26486.318287014525,265.1419384533603
28121,MS,32.2641,-89.9458,154119,Rankin County,52.2,2022-09-14,Rankin,43175.0,509.0,3.6,68583,28014.06705208313,330.26427630597135
26021,MI,41.9547,-86.4123,153797,Berrien County,57.1,2022-09-14,Berrien,39081.0,616.0,5.8,56346,25410.768740612628,400.5279686859951
13021,GA,32.8065,-83.6974,153026,Bibb County,47.0,2022-09-14,Bibb,43057.0,808.0,5.0,44467,28137.04860611922,528.0148471501575
8077,CO,39.0183,-108.4665,152962,Mesa County,50.9,2022-09-14,Mesa,47835.0,600.0,5.7,64141,31272.47290176645,392.2542853780677
23019,ME,45.4006,-68.6495,151696,Penobscot County,73.0,2022-09-14,Penobscot,33280.0,354.0,4.7,52079,21938.614070245756,233.36145976162854
6031,CA,36.0753,-119.8155,151090,Kings County,51.4,2022-09-14,Kings,63034.0,455.0,9.6,60319,41719.50493083593,301.14501290621484
9013,CT,41.855,-72.3365,150947,Tolland County,68.0,2022-09-14,Tolland,25171.0,296.0,5.1,87247,16675.38937507867,196.09531822427738
33013,NH,43.2975,-71.6802,150902,Merrimack County,70.8,2022-09-14,Merrimack,36695.0,251.0,3.2,81132,24317.106466448422,166.3331168572981
19103,IA,41.6715,-91.5881,150819,Johnson County,74.2,2022-09-14,Johnson,41801.0,159.0,3.7,68790,27716.003951756742,105.42438286953235
24043,MD,39.6036,-77.814,150575,Washington County,60.9,2022-09-14,Washington,38756.0,600.0,5.4,63237,25738.668437655655,398.4725219990038
35049,NM,35.5069,-105.9763,150319,Santa Fe County,83.8,2022-09-14,Santa Fe,36922.0,348.0,6.2,58898,24562.430564333186,231.50766037560123
51179,VA,38.4207,-77.458,150185,Stafford County,60.2,2022-09-14,Stafford,38017.0,186.0,3.6,110120,25313.446749009556,123.84725505210241
34011,NJ,39.3738,-75.1107,150085,Cumberland County,54.1,2022-09-14,Cumberland,46549.0,634.0,7.7,60352,31015.091448179366,422.4272912016524
26115,MI,41.9291,-83.5394,150000,Monroe County,58.2,2022-09-14,Monroe,44274.0,503.0,6.0,69182,29515.999999999996,335.3333333333333
48091,TX,29.8082,-98.2783,148921,Comal County,62.6,2022-09-14,Comal,40262.0,565.0,4.5,79290,27035.810933313638,379.3957870280216
12017,FL,28.8489,-82.4794,147938,Citrus County,57.2,2022-09-14,Citrus,36289.0,1053.0,5.7,48574,24529.870621476566,711.7846665495005
18105,IN,39.1609,-86.5231,147318,Monroe County,60.6,2022-09-14,Monroe,32475.0,295.0,2.9,61808,22044.149391113104,200.24708453820986
27139,MN,44.6485,-93.5359,147201,Scott County,70.8,2022-09-14,Scott,45211.0,272.0,3.0,99924,30713.785911780487,184.78135338754493
37135,NC,36.0611,-79.1207,146354,Orange County,84.1,2022-09-14,Orange,35438.0,146.0,3.5,82732,24213.892343222597,99.75812072099157
13077,GA,33.3534,-84.7634,145839,Coweta County,45.4,2022-09-14,Coweta,38551.0,510.0,3.4,84121,26433.944281022224,349.7006973443318
13097,GA,33.7018,-84.768,145063,Douglas County,47.3,2022-09-14,Douglas,40686.0,432.0,4.4,65269,28047.124352867377,297.801644802603
35043,NM,35.6886,-106.8659,144954,Sandoval County,73.5,2022-09-14,Sandoval,40962.0,477.0,6.6,71991,28258.619975992384,329.0699118340991
40017,OK,35.5424,-97.9824,144610,Canadian County,59.8,2022-09-14,Canadian,44914.0,399.0,3.2,75452,31058.709632805476,275.9145287324528
37151,NC,35.7103,-79.806,143460,Randolph County,45.9,2022-09-14,Randolph,40401.0,475.0,4.7,48849,28161.85696361355,331.10274641014917
28059,MS,30.5423,-88.6357,142872,Jackson County,48.7,2022-09-14,Jackson,43307.0,484.0,6.0,55831,30311.747578251863,338.76476846407974
17161,IL,41.4673,-90.5674,142801,Rock Island County,60.0,2022-09-14,Rock Island,39276.0,543.0,5.6,58022,27504.0090755667,380.24943802914544
4005,AZ,35.8387,-111.7705,142254,Coconino County,79.5,2022-09-14,Coconino,49418.0,496.0,6.0,57146,34739.269194539345,348.6720935790909
42107,PA,40.7058,-76.2159,141935,Schuylkill County,61.8,2022-09-14,Schuylkill,38673.0,712.0,6.8,52307,27246.97925106563,501.6380737661605
34037,NJ,41.1393,-74.6908,140996,Sussex County,64.0,2022-09-14,Sussex,40465.0,503.0,5.9,92739,28699.39572753837,356.74770915486965
37159,NC,35.6394,-80.5248,140978,Rowan County,46.6,2022-09-14,Rowan,47565.0,613.0,5.0,55398,33739.30684220233,434.8196172452439
47189,TN,36.1549,-86.2977,140604,Wilson County,54.5,2022-09-14,Wilson,47512.0,511.0,3.2,77822,33791.357287132654,363.43205029728887
22063,LA,30.4401,-90.7279,140524,Livingston Parish,40.6,2022-09-14,Livingston,41687.0,478.0,3.8,61680,29665.395234977655,340.1554182915374
42075,PA,40.3672,-76.4577,140410,Lebanon County,57.9,2022-09-14,Lebanon,41256.0,535.0,5.5,63605,29382.52261234955,381.0269923794601
6055,CA,38.5065,-122.3305,138572,Napa County,79.5,2022-09-14,Napa,33317.0,158.0,6.0,92149,24043.096729498022,114.0201483705222
48367,TX,32.7776,-97.8051,138447,Parker County,46.4,2022-09-14,Parker,38428.0,466.0,4.4,88617,27756.469984903968,336.59089759980355
45041,SC,34.0245,-79.703,138237,Florence County,56.2,2022-09-14,Florence,47545.0,655.0,4.1,47429,34393.83088464015,473.8239400449952
48441,TX,32.3015,-99.8902,137521,Taylor County,50.7,2022-09-14,Taylor,40175.0,740.0,4.3,52974,29213.720086386806,538.0996356920034
37019,NC,34.071,-78.2377,137303,Brunswick County,67.2,2022-09-14,Brunswick,36937.0,352.0,6.0,64371,26901.815692300966,256.3673044288908
27171,MN,45.1739,-93.9631,136387,Wright County,55.9,2022-09-14,Wright,40155.0,315.0,3.1,85855,29441.955611605215,230.96042877986906
6023,CA,40.6993,-123.8756,136101,Humboldt County,67.2,2022-09-14,Humboldt,26772.0,157.0,6.2,56071,19670.68574073666,115.35550804182189
48381,TX,34.9659,-101.8969,136005,Randall County,46.8,2022-09-14,Randall,42163.0,529.0,3.5,71041,31001.066137274363,388.95628837175104
55131,WI,43.3685,-88.2307,135529,Washington County,58.7,2022-09-14,Washington,43382.0,350.0,3.1,81659,32009.385445181477,258.2473123833276
55073,WI,44.8983,-89.7591,135485,Marathon County,61.2,2022-09-14,Marathon,45410.0,518.0,3.0,67074,33516.62545669262,382.33014724877296
51650,VA,37.0551,-76.363,135169,Hampton city,62.2,2022-09-14,Hampton city,34403.0,348.0,5.7,53719,25451.841768452825,257.4554816562969
51177,VA,38.1849,-77.6561,134683,Spotsylvania County,45.1,2022-09-14,Spotsylvania,32652.0,311.0,3.8,94299,24243.59421753302,230.91258733470443
39023,OH,39.9168,-83.7839,134409,Clark County,53.6,2022-09-14,Clark,39822.0,597.0,5.3,54507,29627.480302658303,444.1666852666116
37085,NC,35.3688,-78.8693,134328,Harnett County,43.7,2022-09-14,Harnett,39136.0,356.0,5.3,55586,29134.655470192367,265.02292895003274
26025,MI,42.2465,-85.0056,133943,Calhoun County,53.0,2022-09-14,Calhoun,39399.0,614.0,6.6,52310,29414.751050820127,458.4039479480077
22105,LA,30.6266,-90.4057,133753,Tangipahoa Parish,47.4,2022-09-14,Tangipahoa,41131.0,635.0,6.4,47272,30751.459780341378,474.75570641406176
48181,TX,33.6268,-96.6777,133527,Grayson County,45.5,2022-09-14,Grayson,29963.0,659.0,4.6,59554,22439.656399080333,493.5331431096333
17179,IL,40.5075,-89.5134,132524,Tazewell County,59.9,2022-09-14,Tazewell,42445.0,523.0,5.0,69874,32028.160936886903,394.64549817391566
21015,KY,38.9699,-84.7278,132368,Boone County,63.6,2022-09-14,Boone,45403.0,322.0,3.8,82393,34300.586244409526,243.26121116886256
48485,TX,33.988,-98.7036,132154,Wichita County,52.1,2022-09-14,Wichita,37092.0,698.0,5.3,54659,28067.25486931913,528.1716784962998
19013,IA,42.4701,-92.3088,131813,Black Hawk County,61.4,2022-09-14,Black Hawk,36708.0,499.0,4.6,56091,27848.543011690803,378.5666057217422
37155,NC,34.6402,-79.1039,131656,Robeson County,43.6,2022-09-14,Robeson,47552.0,565.0,7.6,39139,36118.36908306496,429.1486905268275
47009,TN,35.6872,-83.9255,131641,Blount County,53.2,2022-09-14,Blount,45034.0,471.0,3.4,67576,34209.706702319185,357.7912656391246
42021,PA,40.4953,-78.7135,131611,Cambria County,57.3,2022-09-14,Cambria,39529.0,757.0,7.0,48653,30034.723541345327,575.1798861797266
21227,KY,36.9936,-86.4238,130836,Warren County,39.5,2022-09-14,Warren,49631.0,397.0,4.3,56552,37933.74912103703,303.4333058179706
39173,OH,41.3617,-83.623,130662,Wood County,61.9,2022-09-14,Wood,35812.0,374.0,4.3,67865,27408.12171863281,286.23471246422065
22079,LA,31.1986,-92.5332,130376,Rapides Parish,50.9,2022-09-14,Rapides,37691.0,604.0,4.0,45130,28909.461864146775,463.27544946922745
42051,PA,39.9201,-79.6474,130329,Fayette County,58.8,2022-09-14,Fayette,35970.0,709.0,8.7,45256,27599.383099693852,544.0078570387251
33017,NH,43.297,-71.0289,130161,Strafford County,65.9,2022-09-14,Strafford,34189.0,227.0,3.3,72817,26266.700470955202,174.39939766904064
12119,FL,28.7048,-82.081,129938,Sumter County,81.7,2022-09-14,Sumter,27348.0,638.0,5.3,60278,21046.960858255476,491.00340162231214
48257,TX,32.5993,-96.2878,129792,Kaufman County,52.8,2022-09-14,Kaufman,40248.0,545.0,4.9,76352,31009.615384615387,419.9026134122288
18095,IN,40.1617,-85.7194,129486,Madison County,54.3,2022-09-14,Madison,36866.0,669.0,4.1,51718,28471.031617317705,516.6581715397804
47179,TN,36.2933,-82.4974,128874,Washington County,60.9,2022-09-14,Washington,44538.0,516.0,3.6,52088,34559.337026863446,400.391079659202
5131,AR,35.1988,-94.2743,127670,Sebastian County,51.7,2022-09-14,Sebastian,37047.0,549.0,3.7,48627,29017.780214615806,430.0148821179604
36013,NY,42.2281,-79.3663,127584,Chautauqua County,60.5,2022-09-14,Chautauqua,27263.0,317.0,5.6,50062,21368.666917481816,248.46375721093557
17093,IL,41.5906,-88.4288,127583,Kendall County,70.1,2022-09-14,Kendall,38334.0,176.0,4.7,97263,30046.322785951106,137.94941332309162
53057,WA,48.4793,-121.7305,127442,Skagit County,68.4,2022-09-14,Skagit,26312.0,226.0,6.3,78798,20646.254766874343,177.33557226032235
41043,OR,44.4887,-122.5344,127216,Linn County,56.3,2022-09-14,Linn,30993.0,306.0,5.6,65516,24362.50157212929,240.53578166268395
22015,LA,32.6784,-93.6049,126952,Bossier Parish,51.4,2022-09-14,Bossier,46536.0,515.0,3.9,53225,36656.37406263785,405.6651332787195
13059,GA,33.9512,-83.3673,126952,Clarke County,47.5,2022-09-14,Clarke,33464.0,247.0,3.8,46693,26359.568970949647,194.5617241162014
4003,AZ,31.8795,-109.7512,126442,Cochise County,67.4,2022-09-14,Cochise,35943.0,593.0,4.8,51171,28426.472216510334,468.98973442368833
49005,UT,41.7224,-111.7436,126336,Cache County,59.3,2022-09-14,Cache,40008.0,114.0,2.0,65391,31667.93313069909,90.2355623100304
44009,RI,41.4697,-71.6225,126139,Washington County,80.5,2022-09-14,Washington,39306.0,247.0,4.9,83925,31160.862223420194,195.81572709471297
25003,MA,42.3707,-73.2064,125927,Berkshire County,60.6,2022-09-14,Berkshire,31080.0,413.0,6.7,65458,24680.96595646684,327.96779086296027
35045,NM,36.5085,-108.3206,125608,San Juan County,77.1,2022-09-14,San Juan,47105.0,823.0,8.0,44261,37501.59225527036,655.2130437551748
45077,SC,34.8873,-82.7253,125381,Pickens County,47.5,2022-09-14,Pickens,50723.0,644.0,3.5,54588,40455.09287691118,513.6344422201131
34019,NJ,40.5673,-74.9122,125063,Hunterdon County,72.8,2022-09-14,Hunterdon,30634.0,285.0,4.6,113611,24494.854593284985,227.88514588647323
22005,LA,30.2036,-90.9113,125061,Ascension Parish,51.7,2022-09-14,Ascension,39794.0,301.0,4.2,88680,31819.67200006397,240.68254691710445
5045,AR,35.147,-92.332,124800,Faulkner County,52.4,2022-09-14,Faulkner,40291.0,331.0,3.5,57367,32284.45512820513,265.22435897435895
37191,NC,35.364,-78.004,123785,Wayne County,50.6,2022-09-14,Wayne,37681.0,423.0,5.0,52906,30440.683443066606,341.7215333037121
48183,TX,32.4805,-94.817,123633,Gregg County,45.3,2022-09-14,Gregg,25648.0,709.0,6.5,51394,20745.270275735442,573.4714841506718
42013,PA,40.4811,-78.3484,122495,Blair County,54.3,2022-09-14,Blair,32874.0,644.0,6.0,52177,26837.013755663498,525.7357443160945
23011,ME,44.4091,-69.7673,122158,Kennebec County,73.6,2022-09-14,Kennebec,27313.0,263.0,4.3,53876,22358.74850603317,215.29494588974933
40031,OK,34.6621,-98.4717,121374,Comanche County,63.1,2022-09-14,Comanche,36714.0,405.0,4.1,54007,30248.65292401997,333.6793711997627
20045,KS,38.8847,-95.2926,121304,Douglas County,63.7,2022-09-14,Douglas,31637.0,153.0,3.1,65149,26080.75578711337,126.1293939194091
39139,OH,40.7747,-82.5365,121043,Richland County,45.5,2022-09-14,Richland,36154.0,528.0,5.6,52295,29868.72433763208,436.2086200771627
5125,AR,34.6467,-92.6766,120990,Saline County,53.4,2022-09-14,Saline,34701.0,355.0,3.1,70550,28680.882717579963,293.41267873377967
29097,MO,37.2035,-94.3406,120528,Jasper County,48.3,2022-09-14,Jasper,22725.0,329.0,3.7,51329,18854.54002389486,272.9656179476968
1103,AL,34.4535,-86.8529,119352,Morgan County,44.4,2022-09-14,Morgan,42317.0,527.0,2.6,55688,35455.62705275152,441.55104229506
30063,MT,47.0365,-113.9237,119062,Missoula County,65.6,2022-09-14,Missoula,31456.0,216.0,3.4,63409,26419.848482303336,181.4180846953688
13045,GA,33.5828,-85.0798,118692,Carroll County,38.5,2022-09-14,Carroll,26853.0,477.0,3.7,64554,22624.10271964412,401.88049742189867
48451,TX,31.4044,-100.4622,118645,Tom Green County,50.7,2022-09-14,Tom Green,47255.0,561.0,4.9,55990,39828.90134434658,472.8391419781702
48375,TX,35.4013,-101.8941,118323,Potter County,46.4,2022-09-14,Potter,39776.0,753.0,4.3,45903,33616.45664832704,636.3936005679369
55063,WI,43.9066,-91.1152,118168,La Crosse County,70.4,2022-09-14,La Crosse,40611.0,196.0,3.0,63298,34367.17216166814,165.86554735630628
36075,NY,43.4269,-76.1413,117630,Oswego County,60.3,2022-09-14,Oswego,31321.0,206.0,5.5,58439,26626.710873076598,175.12539318201138
54003,WV,39.4641,-78.0275,117615,Berkeley County,56.5,2022-09-14,Berkeley,41548.0,320.0,3.6,67163,35325.42617863368,272.07414020320533
18019,IN,38.4772,-85.7073,117410,Clark County,62.7,2022-09-14,Clark,36854.0,412.0,3.2,65555,31389.149135508047,350.9070777616898
26005,MI,42.5913,-85.8884,117104,Allegan County,53.0,2022-09-14,Allegan,30447.0,374.0,4.7,63732,25999.965842328187,319.3742314523842
16019,ID,43.3877,-111.6148,116970,Bonneville County,54.6,2022-09-14,Bonneville,33570.0,293.0,2.9,67294,28699.66658117466,250.49157903736003
9015,CT,41.83,-71.9874,116657,Windham County,65.3,2022-09-14,Windham,29191.0,318.0,6.2,66349,25022.930471381915,272.59401493266586
13185,GA,30.8338,-83.2677,116436,Lowndes County,40.7,2022-09-14,Lowndes,35306.0,414.0,4.1,48864,30322.237108797966,355.56013604039987
37089,NC,35.3363,-82.48,116298,Henderson County,61.3,2022-09-14,Henderson,29531.0,338.0,4.1,60550,25392.52609675145,290.63268499888216
39169,OH,40.8289,-81.888,116063,Wayne County,46.3,2022-09-14,Wayne,26269.0,450.0,3.6,67708,22633.397379009675,387.7204621627909
55117,WI,43.7212,-87.9454,115152,Sheboygan County,63.5,2022-09-14,Sheboygan,36756.0,341.0,3.1,64104,31919.549812421843,296.1303320828123
18035,IN,40.2275,-85.3969,114461,Delaware County,50.1,2022-09-14,Delaware,28172.0,464.0,3.9,46612,24612.750194389355,405.37825110736406
1015,AL,33.7714,-85.826,114324,Calhoun County,48.1,2022-09-14,Calhoun,36319.0,647.0,4.1,50259,31768.482558342952,565.9354116371015
42081,PA,41.3434,-77.0645,114014,Lycoming County,53.9,2022-09-14,Lycoming,32108.0,559.0,6.7,56751,28161.453856543932,490.2906660585542
13113,GA,33.4139,-84.4943,113544,Fayette County,63.3,2022-09-14,Fayette,27316.0,355.0,2.9,98623,24057.634044951737,312.6541252730219
24037,MD,38.3024,-76.6059,113182,St. Mary's County,67.4,2022-09-14,St. Mary's,22393.0,231.0,4.5,105197,19784.9481366295,204.09605767701578
12035,FL,29.4614,-81.3136,112854,Flagler County,64.7,2022-09-14,Flagler,26952.0,393.0,4.6,67054,23882.18406082195,348.23754585570737
46103,SD,44.0037,-102.8238,112504,Pennington County,60.6,2022-09-14,Pennington,36651.0,356.0,3.2,62214,32577.508355258477,316.43319348645383
36045,NY,44.0495,-75.9208,111454,Jefferson County,75.4,2022-09-14,Jefferson,24072.0,144.0,5.0,57570,21598.148114917363,129.2012848349992
30031,MT,45.5404,-111.1704,111401,Gallatin County,60.5,2022-09-14,Gallatin,39238.0,127.0,2.4,70029,35222.30500623873,114.00256730190932
22109,LA,29.4148,-90.8663,111297,Terrebonne Parish,46.3,2022-09-14,Terrebonne,36613.0,429.0,5.8,55402,32896.663881326545,385.4551335615515
42085,PA,41.3022,-80.2577,110519,Mercer County,54.8,2022-09-14,Mercer,26310.0,518.0,7.1,51743,23805.86143559026,468.6976899899564
4017,AZ,35.3996,-110.3214,110271,Navajo County,80.1,2022-09-14,Navajo,43986.0,936.0,6.5,46698,39889.00073455396,848.8179122344043
18091,IN,41.546,-86.74,110026,LaPorte County,58.1,2022-09-14,LaPorte,29544.0,379.0,5.1,63999,26851.835020813265,344.4640357733627
41019,OR,43.2797,-123.1665,110015,Douglas County,53.6,2022-09-14,Douglas,23987.0,429.0,5.8,52355,21803.390446757257,389.94682543289554
17091,IL,41.1377,-87.8618,109924,Kankakee County,53.2,2022-09-14,Kankakee,33368.0,386.0,6.5,57413,30355.51835813835,351.1517048142353
13217,GA,33.555,-83.8502,109835,Newton County,43.1,2022-09-14,Newton,28547.0,472.0,4.4,62183,25990.804388400786,429.7355123594483
36069,NY,42.8528,-77.2998,109774,Ontario County,69.3,2022-09-14,Ontario,23685.0,194.0,4.3,62777,21576.14735729772,176.7267294623499
26045,MI,42.5961,-84.8383,109730,Eaton County,57.7,2022-09-14,Eaton,31717.0,429.0,5.3,67658,28904.583978857194,390.9596281782557
21093,KY,37.6979,-85.9634,109627,Hardin County,66.2,2022-09-14,Hardin,39835.0,467.0,4.7,56557,36336.85132312295,425.98994773185444
5031,AR,35.8308,-90.6328,109081,Craighead County,48.5,2022-09-14,Craighead,43330.0,352.0,3.3,51797,39722.7748187127,322.6959782180215
17099,IL,41.344,-88.8859,108998,LaSalle County,59.1,2022-09-14,LaSalle,33987.0,452.0,6.0,62714,31181.306079010625,414.6865080093213
51003,VA,38.0229,-78.5567,108819,Albemarle County,66.1,2022-09-14,Albemarle,22677.0,189.0,3.2,79708,20839.19168527555,173.68290463981472
53015,WA,46.1932,-122.681,108399,Cowlitz County,60.1,2022-09-14,Cowlitz,25895.0,377.0,6.4,64357,23888.596758272677,347.7891862471056
36089,NY,44.4964,-75.069,108352,St. Lawrence County,61.8,2022-09-14,St. Lawrence,24411.0,204.0,5.1,51526,22529.34878913172,188.27525103366804
23001,ME,44.1658,-70.2065,107958,Androscoggin County,71.9,2022-09-14,Androscoggin,25601.0,302.0,4.9,57723,23713.85168306193,279.7384167917153
2170,AK,62.3155,-149.5728,107360,Matanuska-Susitna Borough,41.5,2022-09-14,Matanuska-Susitna Borough,39363.0,247.0,6.8,89502,36664.49329359165,230.06706408345755
18167,IN,39.4306,-87.39,107305,Vigo County,51.6,2022-09-14,Vigo,32724.0,421.0,4.3,45897,30496.249009831787,392.3395927496388
47011,TN,35.1541,-84.8596,106924,Bradley County,42.6,2022-09-14,Bradley,36903.0,430.0,4.1,49802,34513.2991657626,402.15480154128164
45085,SC,33.9162,-80.3823,106675,Sumter County,58.1,2022-09-14,Sumter,32607.0,409.0,4.6,45724,30566.67447855636,383.4075462854465
51085,VA,37.7601,-77.491,106538,Hanover County,59.5,2022-09-14,Hanover,25888.0,316.0,3.0,97717,24299.31104394676,296.6077831384107
13015,GA,34.2377,-84.8403,106456,Bartow County,37.9,2022-09-14,Bartow,33510.0,461.0,3.5,64980,31477.793642443823,433.0427594499136
54061,WV,39.6303,-80.0466,106196,Monongalia County,60.1,2022-09-14,Monongalia,29351.0,202.0,3.9,55836,27638.517458284685,190.21432069004481
41071,OR,45.2327,-123.3081,106087,Yamhill County,64.3,2022-09-14,Yamhill,21084.0,238.0,4.7,68266,19874.254149895838,224.34417035074983
39109,OH,40.0535,-84.2289,106074,Miami County,48.6,2022-09-14,Miami,29184.0,492.0,4.3,63699,27512.868374908085,463.8271395440919
34041,NJ,40.8572,-74.9973,105730,Warren County,69.7,2022-09-14,Warren,28427.0,354.0,5.5,80412,26886.408777073677,334.81509505343803
28089,MS,32.6347,-90.0337,105482,Madison County,64.8,2022-09-14,Madison,28992.0,342.0,4.3,67151,27485.258148309666,324.22593428262644
1069,AL,31.1532,-85.3025,105319,Houston County,44.1,2022-09-14,Houston,29970.0,522.0,3.4,54391,28456.403877742858,495.63706453726303
17115,IL,39.86,-88.9615,104688,Macon County,54.0,2022-09-14,Macon,36339.0,367.0,7.7,57601,34711.71480972031,350.56548983646644
29037,MO,38.647,-94.3549,104687,Cass County,53.4,2022-09-14,Cass,28163.0,328.0,3.9,82068,26902.09863688901,313.31492926533383
17037,IL,41.8935,-88.7703,104588,DeKalb County,57.3,2022-09-14,DeKalb,29198.0,208.0,5.6,68546,27917.16066852794,198.87558802157034
12055,FL,27.3434,-81.341,104574,Highlands County,53.4,2022-09-14,Highlands,28858.0,743.0,5.9,48922,27595.76950293572,710.5016543309044
55035,WI,44.7268,-91.286,104132,Eau Claire County,62.8,2022-09-14,Eau Claire,34381.0,197.0,3.2,67409,33016.74797372566,189.18296008911764
13313,GA,34.8056,-84.9672,104122,Whitfield County,44.2,2022-09-14,Whitfield,37857.0,464.0,3.9,56249,36358.31044351818,445.6310866099384
29071,MO,38.4111,-91.075,103629,Franklin County,55.1,2022-09-14,Franklin,28910.0,388.0,4.0,62781,27897.596232714783,374.412567910527
27019,MN,44.8207,-93.8026,103561,Carver County,68.5,2022-09-14,Carver,30155.0,125.0,2.7,107932,29118.10430567492,120.70180859589999
26017,MI,43.7074,-83.9921,103506,Bay County,57.9,2022-09-14,Bay,30116.0,624.0,6.1,55860,29095.897822348466,602.8636021100226
55127,WI,42.6685,-88.5419,103391,Walworth County,55.4,2022-09-14,Walworth,30450.0,293.0,3.6,67656,29451.306206536356,283.3902370612529
24045,MD,38.3733,-75.6208,103222,Wicomico County,57.1,2022-09-14,Wicomico,22873.0,345.0,6.1,59387,22159.0358644475,334.2310747708822
24015,MD,39.5712,-75.9407,102889,Cecil County,59.9,2022-09-14,Cecil,18342.0,272.0,5.2,84248,17826.97858857604,264.3625654831906
29165,MO,39.3803,-94.7738,102848,Platte County,58.3,2022-09-14,Platte,11867.0,105.0,4.0,86924,11538.386745488488,102.09240821406347
39003,OH,40.7715,-84.1058,102808,Allen County,44.9,2022-09-14,Allen,30597.0,482.0,5.7,52558,29761.302622364015,468.8351101081628
1055,AL,34.0453,-86.0348,102721,Etowah County,41.9,2022-09-14,Etowah,31562.0,666.0,4.1,47872,30725.946982603364,648.3581740831962
19193,IA,42.3897,-96.0448,102687,Woodbury County,57.8,2022-09-14,Woodbury,31445.0,346.0,4.3,60553,30622.181970453905,336.94625415096357
55039,WI,43.7536,-88.4882,102654,Fond du Lac County,56.8,2022-09-14,Fond du Lac,35991.0,293.0,3.2,69280,35060.494476591266,285.4248251407641
42001,PA,39.8715,-77.2179,102627,Adams County,57.1,2022-09-14,Adams,28510.0,392.0,4.4,70470,27780.213783897023,381.96575949798785
39029,OH,40.7684,-80.7772,102514,Columbiana County,50.2,2022-09-14,Columbiana,27355.0,491.0,5.7,49342,26684.16021226369,478.958971457557
37049,NC,35.1249,-77.0939,102290,Craven County,64.5,2022-09-14,Craven,29345.0,228.0,4.7,53960,28688.04379704761,222.89568872812592
36109,NY,42.452,-76.4736,102237,Tompkins County,81.1,2022-09-14,Tompkins,24303.0,92.0,3.7,65308,23771.237418938348,89.9869910110821
30029,MT,48.2951,-114.0497,102001,Flathead County,43.6,2022-09-14,Flathead,32103.0,293.0,4.0,58959,31473.220850775975,287.25208576386507
48397,TX,32.8978,-96.4079,101175,Rockwall County,59.0,2022-09-14,Rockwall,29778.0,272.0,4.3,106225,29432.17197924388,268.8411168766988
21059,KY,37.7318,-87.0873,101001,Daviess County,55.0,2022-09-14,Daviess,35675.0,407.0,4.3,54948,35321.432461064745,402.9663072642845
6057,CA,39.3013,-120.7688,99417,Nevada County,65.1,2022-09-14,Nevada,20580.0,132.0,5.6,74158,20700.684993512175,132.77407284468453
56021,WY,41.3071,-104.6896,99272,Laramie County,57.8,2022-09-14,Laramie,29887.0,305.0,4.0,69450,30106.17293899589,307.2366830526231
37125,NC,35.3106,-79.4814,99263,Moore County,63.3,2022-09-14,Moore,28509.0,346.0,4.6,69413,28720.671347833533,348.5689531849732
51770,VA,37.2785,-79.9581,99122,Roanoke city,41.4,2022-09-14,Roanoke city,25701.0,394.0,4.8,49313,25928.653578418514,397.4899618651762
5051,AR,34.5767,-93.1504,99043,Garland County,47.2,2022-09-14,Garland,25723.0,528.0,5.0,46459,25971.54771160001,533.1017840735842
36079,NY,41.4267,-73.7495,98714,Putnam County,75.6,2022-09-14,Putnam,28312.0,131.0,4.2,104285,28680.835545110116,132.70660696557732
51121,VA,37.1743,-80.3872,98495,Montgomery County,46.9,2022-09-14,Montgomery,22838.0,166.0,3.0,62418,23186.963805269304,168.53647393268693
2090,AK,64.8078,-146.5654,98455,Fairbanks North Star Borough,61.6,2022-09-14,Fairbanks North Star Borough,32167.0,154.0,5.0,76650,32671.778985323246,156.4166370423036
26091,MI,41.8951,-84.0664,98310,Lenawee County,53.7,2022-09-14,Lenawee,29682.0,343.0,5.5,58849,30192.24900823924,348.89634828603397
47155,TN,35.7846,-83.5242,98007,Sevier County,51.2,2022-09-14,Sevier,34121.0,435.0,3.9,54284,34814.860163049576,443.84584774556924
22057,LA,29.5661,-90.4256,97980,Lafourche Parish,45.9,2022-09-14,Lafourche,32415.0,389.0,4.6,56743,33083.28230251072,397.0197999591753
47113,TN,35.6082,-88.8385,97838,Madison County,55.5,2022-09-14,Madison,34999.0,457.0,4.5,47580,35772.3992722664,467.09867331711604
13115,GA,34.2632,-85.2143,97805,Floyd County,43.2,2022-09-14,Floyd,30622.0,538.0,3.7,47423,31309.237769030213,550.074127089617
37045,NC,35.3341,-81.5555,97765,Cleveland County,52.0,2022-09-14,Cleveland,34120.0,423.0,5.3,49041,34900.01534291413,432.67017848923433
39007,OH,41.7074,-80.7483,97416,Ashtabula County,54.0,2022-09-14,Ashtabula,23186.0,443.0,5.5,51252,23801.018313213433,454.7507596288084
19169,IA,42.0362,-93.465,97355,Story County,64.2,2022-09-14,Story,22014.0,92.0,3.0,61341,22612.08977453649,94.49951209491039
19061,IA,42.4688,-90.8825,97193,Dubuque County,65.5,2022-09-14,Dubuque,29040.0,307.0,4.4,65986,29878.694967744592,315.8663689771897
1083,AL,34.8101,-86.9814,96921,Limestone County,39.6,2022-09-14,Limestone,29232.0,304.0,2.5,70850,30160.64629956356,313.65751488325543
53025,WA,47.2057,-119.4517,96648,Grant County,58.1,2022-09-14,Grant,30869.0,264.0,6.6,54753,31939.615925833954,273.15619567916565
6101,CA,39.0346,-121.6948,96315,Sutter County,62.2,2022-09-14,Sutter,26496.0,235.0,9.0,65791,27509.733686341693,243.99107096506256
48231,TX,33.1236,-96.0855,96202,Hunt County,43.0,2022-09-14,Hunt,18315.0,372.0,5.1,53760,19038.065736679073,386.6863474771834
1095,AL,34.367,-86.3066,96137,Marshall County,46.7,2022-09-14,Marshall,30601.0,400.0,2.4,51417,31830.616724050054,416.0728959713741
27141,MN,45.4439,-93.7746,96015,Sherburne County,47.1,2022-09-14,Sherburne,29881.0,186.0,3.5,92673,31121.17898245066,193.71973129198562
36101,NY,42.2678,-77.3838,95843,Steuben County,61.7,2022-09-14,Steuben,23238.0,262.0,5.0,54794,24245.90215247853,273.36373026720787
38015,ND,46.9775,-100.4687,95509,Burleigh County,52.2,2022-09-14,Burleigh,38349.0,303.0,3.1,72170,40152.2369619617,317.24758923242837
45057,SC,34.6867,-80.7054,95378,Lancaster County,48.1,2022-09-14,Lancaster,29009.0,286.0,4.4,63019,30414.770701839,299.85950638512026
51740,VA,36.8468,-76.354,94961,Portsmouth city,50.6,2022-09-14,Portsmouth city,24202.0,349.0,6.7,52070,25486.252250924063,367.519297395773
47119,TN,35.6169,-87.077,94615,Maury County,65.6,2022-09-14,Maury,32850.0,363.0,4.7,65942,34719.65333192411,383.6600961792528
37127,NC,35.9673,-77.9864,94287,Nash County,60.7,2022-09-14,Nash,30245.0,338.0,6.3,49883,32077.592881309192,358.47996012175594
51161,VA,37.2693,-80.068,94103,Roanoke County,49.5,2022-09-14,Roanoke,25585.0,299.0,3.1,71613,27188.293678203667,317.73694781250333
53021,WA,46.5347,-118.8989,93681,Franklin County,54.1,2022-09-14,Franklin,35719.0,219.0,6.6,73656,38128.329116896704,233.77205623338776
39055,OH,41.4995,-81.1786,93657,Geauga County,62.2,2022-09-14,Geauga,18432.0,273.0,4.1,84510,19680.322880297255,291.489157243986
48037,TX,33.4458,-94.4234,93622,Bowie County,40.0,2022-09-14,Bowie,22915.0,446.0,5.8,50326,24476.08468095106,476.3837559547969
21037,KY,38.9465,-84.3795,93608,Campbell County,65.2,2022-09-14,Campbell,28711.0,195.0,4.0,64151,30671.523801384497,208.31552858730026
19155,IA,41.3366,-95.5423,93478,Pottawattamie County,59.0,2022-09-14,Pottawattamie,26502.0,327.0,4.3,61607,28351.05586341171,349.81492971608293
54011,WV,38.4203,-82.2417,93328,Cabell County,61.6,2022-09-14,Cabell,32113.0,405.0,4.6,44161,34408.75192868164,433.9533687639294
13297,GA,33.7816,-83.7339,93284,Walton County,42.1,2022-09-14,Walton,24843.0,451.0,3.2,71390,26631.576690536425,483.46983405514345
1077,AL,34.9014,-87.654,92870,Lauderdale County,47.7,2022-09-14,Lauderdale,27951.0,405.0,3.2,52293,30096.909658662647,436.0934639819102
34009,NJ,39.1496,-74.8002,92701,Cape May County,76.1,2022-09-14,Cape May,26955.0,320.0,8.9,75829,29077.356231324364,345.19584470501934
26055,MI,44.6688,-85.5605,92640,Grand Traverse County,67.6,2022-09-14,Grand Traverse,19969.0,251.0,5.0,67290,21555.48359240069,270.9412780656304
41003,OR,44.4918,-123.4293,92168,Benton County,75.8,2022-09-14,Benton,20208.0,84.0,3.9,66378,21925.180105893585,91.13792205537713
39157,OH,40.4409,-81.4738,92165,Tuscarawas County,45.3,2022-09-14,Tuscarawas,23300.0,516.0,4.6,58256,25280.74648727825,559.8654586882222
24009,MD,38.5434,-76.5687,92094,Calvert County,72.1,2022-09-14,Calvert,13408.0,153.0,4.6,111665,14559.037505157774,166.1346016027103
21151,KY,37.7202,-84.278,92090,Madison County,49.0,2022-09-14,Madison,32374.0,292.0,4.1,55336,35154.73992833098,317.0811162992724
40131,OK,36.3715,-95.6043,92052,Rogers County,47.9,2022-09-14,Rogers,28784.0,395.0,3.5,67243,31269.28257941164,429.1052883153001
48469,TX,28.7963,-96.9715,92044,Victoria County,49.0,2022-09-14,Victoria,21782.0,417.0,6.4,53583,23664.769023510496,453.04419625396554
51800,VA,36.6953,-76.6398,91383,Suffolk city,54.3,2022-09-14,Suffolk city,22299.0,321.0,4.4,72264,24401.69396933784,351.26883556022455
42097,PA,40.8519,-76.7095,91234,Northumberland County,59.1,2022-09-14,Northumberland,26063.0,560.0,6.8,47825,28567.200824254112,613.8062564394853
37157,NC,36.396,-79.775,91051,Rockingham County,52.7,2022-09-14,Rockingham,25192.0,312.0,5.5,50388,27668.01023602157,342.6650997792446
19049,IA,41.6849,-94.0398,90418,Dallas County,68.0,2022-09-14,Dallas,25670.0,151.0,2.9,92025,28390.364750381563,167.00214559047976
33009,NH,43.9407,-71.8208,90331,Grafton County,77.5,2022-09-14,Grafton,21539.0,79.0,3.3,77022,23844.52734941493,87.45613355326522
13247,GA,33.6543,-84.0266,90155,Rockdale County,51.6,2022-09-14,Rockdale,22048.0,331.0,4.6,61332,24455.659697188177,367.1454716876491
37023,NC,35.7496,-81.7048,90148,Burke County,49.3,2022-09-14,Burke,28635.0,344.0,4.5,48729,31764.431823224033,381.5947109198207
36117,NY,43.1566,-77.0294,90103,Wayne County,63.5,2022-09-14,Wayne,20012.0,193.0,4.5,62329,22210.137287326725,214.19930523955918
55109,WI,45.034,-92.4526,89702,St. Croix County,51.5,2022-09-14,St. Croix,28527.0,155.0,3.4,82797,31801.966511337538,172.79436355934092
55089,WI,43.384,-87.951,89179,Ozaukee County,73.0,2022-09-14,Ozaukee,25849.0,193.0,3.1,83274,28985.523497684433,216.41866358671885
1115,AL,33.7157,-86.3146,88929,St. Clair County,40.0,2022-09-14,St. Clair,29702.0,431.0,2.6,61973,33399.678395124196,484.65629884514607
13095,GA,31.5334,-84.2163,88696,Dougherty County,50.3,2022-09-14,Dougherty,22917.0,523.0,6.4,40793,25837.692793361595,589.6545503743122
51069,VA,39.2046,-78.2626,88054,Frederick County,48.9,2022-09-14,Frederick,24277.0,262.0,2.9,83033,27570.581688509323,297.5446884866105
26087,MI,43.0901,-83.2218,87975,Lapeer County,47.8,2022-09-14,Lapeer,23018.0,443.0,6.1,68959,26164.251207729467,503.5521454958795
29021,MO,39.6598,-94.8059,87904,Buchanan County,39.5,2022-09-14,Buchanan,27543.0,329.0,3.8,53133,31333.04514015289,374.2719330178376
55027,WI,43.4163,-88.7075,87569,Dodge County,53.2,2022-09-14,Dodge,29950.0,348.0,3.2,65540,34201.60102319314,397.400906713563
29043,MO,36.9696,-93.1889,87324,Christian County,46.8,2022-09-14,Christian,23248.0,275.0,3.2,67585,26622.69250148871,314.91915166506345
48005,TX,31.2548,-94.6119,87119,Angelina County,47.0,2022-09-14,Angelina,16518.0,491.0,6.5,49943,18960.27273040324,563.5969191565559
6045,CA,39.4402,-123.3915,87110,Mendocino County,68.7,2022-09-14,Mendocino,20268.0,135.0,6.2,53176,23267.133509355986,154.97646653656298
41033,OR,42.3655,-123.5555,87097,Josephine County,50.9,2022-09-14,Josephine,19085.0,368.0,6.2,47740,21912.350597609562,422.51742310297715
45075,SC,33.439,-80.8003,86953,Orangeburg County,57.2,2022-09-14,Orangeburg,27446.0,426.0,7.1,41335,31564.178349223144,489.919841753591
48021,TX,30.1036,-97.312,86839,Bastrop County,57.9,2022-09-14,Bastrop,25562.0,243.0,4.5,74612,29436.08286599339,279.828187795806
16005,ID,42.6685,-112.2246,86742,Bannock County,53.5,2022-09-14,Bannock,23054.0,260.0,3.6,54538,26577.66710474741,299.73945724101355
16083,ID,42.356,-114.6672,86198,Twin Falls County,50.9,2022-09-14,Twin Falls,26952.0,304.0,3.6,54995,31267.546810830878,352.6763962040883
48291,TX,30.1516,-94.8122,86173,Liberty County,42.5,2022-09-14,Liberty,21026.0,409.0,9.2,61230,24399.75398326622,474.6266231882376
42073,PA,40.9912,-80.3347,86148,Lawrence County,55.6,2022-09-14,Lawrence,21421.0,439.0,7.6,50373,24865.348005757536,509.5881506245067
39119,OH,39.9654,-81.9444,86033,Muskingum County,49.1,2022-09-14,Muskingum,29231.0,301.0,5.1,52457,33976.49739053619,349.8657491892646
12089,FL,30.6107,-81.8016,85762,Nassau County,58.9,2022-09-14,Nassau,25667.0,320.0,3.4,75123,29928.17331685362,373.12562673445115
28081,MS,34.2899,-88.6804,85304,Lee County,44.5,2022-09-14,Lee,31211.0,313.0,4.6,57936,36587.96773891025,366.9230047828941
42039,PA,41.6847,-80.1062,85074,Crawford County,50.6,2022-09-14,Crawford,22599.0,339.0,6.7,52372,26563.9325763453,398.4766203540447
13127,GA,31.2309,-81.5407,85008,Glynn County,52.3,2022-09-14,Glynn,26169.0,419.0,3.8,59286,30784.161490683233,492.8947863730472
55055,WI,43.0208,-88.7759,84837,Jefferson County,58.5,2022-09-14,Jefferson,24634.0,249.0,3.3,71772,29036.858917689216,293.50401357898085
41053,OR,44.9035,-123.4132,84730,Polk County,64.4,2022-09-14,Polk,18853.0,149.0,4.8,66973,22250.678626224475,175.8527086038003
37109,NC,35.4856,-81.2235,84580,Lincoln County,50.8,2022-09-14,Lincoln,27796.0,194.0,4.1,56183,32863.561125561595,229.36864506975644
42063,PA,40.652,-79.0876,84463,Indiana County,46.7,2022-09-14,Indiana,19991.0,377.0,7.1,53533,23668.351822691595,446.34928903780354
54107,WV,39.2112,-81.515,84387,Wood County,60.5,2022-09-14,Wood,26212.0,359.0,5.3,47019,31061.65641627265,425.42097716472915
53029,WA,48.163,-122.5481,84187,Island County,76.4,2022-09-14,Island,12511.0,95.0,5.6,76965,14860.964281896255,112.8440257997078
36015,NY,42.1412,-76.76,84115,Chemung County,62.1,2022-09-14,Chemung,24447.0,241.0,5.3,54705,29063.781727397014,286.51251263151636
48361,TX,30.1213,-93.8939,83776,Orange County,36.6,2022-09-14,Orange,16654.0,366.0,9.0,61323,19879.201680672268,436.8792971734148
26111,MI,43.6468,-84.3881,83445,Midland County,59.8,2022-09-14,Midland,21940.0,239.0,4.9,65249,26292.767691293666,286.4162022889328
1043,AL,34.1319,-86.8676,83345,Cullman County,38.8,2022-09-14,Cullman,28675.0,376.0,2.4,51844,34405.183274341594,451.1368408422821
18005,IN,39.206,-85.8976,83280,Bartholomew County,63.0,2022-09-14,Bartholomew,24614.0,257.0,2.9,70545,29555.71565802113,308.597502401537
22097,LA,30.5989,-92.0058,82786,St. Landry Parish,42.7,2022-09-14,St. Landry,25953.0,423.0,6.3,39153,31349.503539245765,510.9559587369845
44005,RI,41.5566,-71.2365,82731,Newport County,76.8,2022-09-14,Newport,24061.0,99.0,4.9,81218,29083.414923063905,119.66493817311527
18067,IN,40.4836,-86.1169,82486,Howard County,49.2,2022-09-14,Howard,28360.0,465.0,6.2,59309,34381.59202773804,563.7320272531097
37027,NC,35.953,-81.5464,82056,Caldwell County,48.6,2022-09-14,Caldwell,26403.0,325.0,4.9,50235,32176.80608365019,396.0709759188847
48213,TX,32.2119,-95.8536,81969,Henderson County,39.1,2022-09-14,Henderson,17428.0,432.0,5.1,52660,21261.696495016407,527.028510778465
40119,OK,36.0773,-96.9756,81912,Payne County,50.2,2022-09-14,Payne,21072.0,175.0,3.2,39681,25725.16847348374,213.6439105381385
37195,NC,35.7051,-77.9187,81579,Wilson County,55.7,2022-09-14,Wilson,25313.0,336.0,6.7,44089,31028.818691084714,411.8707020189019
30013,MT,47.308,-111.347,81576,Cascade County,55.7,2022-09-14,Cascade,27945.0,358.0,3.3,53357,34256.398940864965,438.8545650681573
1051,AL,32.5966,-86.1491,81526,Elmore County,47.5,2022-09-14,Elmore,27369.0,358.0,2.7,62524,33570.88536172509,439.1237151338223
20103,KS,39.1993,-95.038,81499,Leavenworth County,60.4,2022-09-14,Leavenworth,22289.0,197.0,3.3,76429,27348.801825789276,241.72075730990562
13013,GA,33.9932,-83.7127,81294,Barrow County,41.0,2022-09-14,Barrow,24647.0,268.0,2.9,64460,30318.3506777868,329.66762614707113
51165,VA,38.512,-78.8758,81138,Rockingham County,43.5,2022-09-14,Rockingham,17597.0,252.0,2.9,62609,21687.74187187261,310.5819714560378
51680,VA,37.4003,-79.1909,80970,Lynchburg city,30.6,2022-09-14,Lynchburg city,22335.0,287.0,5.1,56089,27584.290477954797,354.45226627145854
21029,KY,37.9701,-85.6959,80921,Bullitt County,46.2,2022-09-14,Bullitt,25976.0,238.0,4.6,71835,32100.44364256497,294.114012431878
36019,NY,44.7462,-73.6782,80320,Clinton County,73.6,2022-09-14,Clinton,20327.0,102.0,4.6,59741,25307.519920318726,126.99203187250995
40145,OK,35.9611,-95.5212,80264,Wagoner County,48.4,2022-09-14,Wagoner,24811.0,285.0,3.5,66375,30911.741253862256,355.07824180205324
1121,AL,33.3801,-86.1659,80244,Talladega County,37.3,2022-09-14,Talladega,26285.0,383.0,4.1,44802,32756.343153382182,477.29425252978416
56025,WY,42.9622,-106.7985,80067,Natrona County,47.0,2022-09-14,Natrona,24475.0,284.0,6.1,65901,30568.149175065882,354.7029362908564
42033,PA,41.0,-78.4742,79466,Clearfield County,51.1,2022-09-14,Clearfield,21994.0,368.0,7.0,48794,27677.24561447663,463.0911333148768
53041,WA,46.5778,-122.3927,79430,Lewis County,52.4,2022-09-14,Lewis,19799.0,278.0,6.3,54578,24926.350245499183,349.993705149188
18085,IN,41.2441,-85.8607,79156,Kosciusko County,42.0,2022-09-14,Kosciusko,21664.0,243.0,2.7,62269,27368.74020920714,306.98873111324474
55071,WI,44.1199,-87.8097,78977,Manitowoc County,61.7,2022-09-14,Manitowoc,23081.0,196.0,3.4,62734,29224.964230092304,248.17351887258314
51019,VA,37.3152,-79.5242,78965,Bedford County,45.3,2022-09-14,Bedford,20015.0,256.0,3.4,70004,25346.672576457924,324.1942632812005
26037,MI,42.9437,-84.6015,78957,Clinton County,58.5,2022-09-14,Clinton,25305.0,216.0,4.4,76367,32049.090011018656,273.56662487176567
29031,MO,37.384,-89.6844,78834,Cape Girardeau County,50.0,2022-09-14,Cape Girardeau,21567.0,254.0,3.6,57763,27357.48534896111,322.19600679909684
5145,AR,35.2563,-91.7456,78725,White County,45.1,2022-09-14,White,25269.0,314.0,4.0,43765,32097.80882819943,398.85677993013655
47141,TN,36.1408,-85.4952,78542,Putnam County,51.9,2022-09-14,Putnam,27760.0,310.0,3.7,47120,35344.14708054289,394.6932851213364
45073,SC,34.7535,-83.0659,78314,Oconee County,45.9,2022-09-14,Oconee,27167.0,352.0,3.6,58061,34689.83834308042,449.4726357994739
18043,IN,38.3188,-85.907,77879,Floyd County,58.7,2022-09-14,Floyd,22135.0,315.0,2.8,70610,28422.296126041678,404.47360649212237
13031,GA,32.3968,-81.7432,77719,Bulloch County,35.0,2022-09-14,Bulloch,17383.0,272.0,4.1,48629,22366.474092564236,349.9787696702222
6115,CA,39.269,-121.3513,77524,Yuba County,55.7,2022-09-14,Yuba,20390.0,129.0,8.5,56278,26301.53242866725,166.4000825550797
41059,OR,45.5919,-118.7369,77319,Umatilla County,56.8,2022-09-14,Umatilla,25055.0,242.0,5.2,62560,32404.71294248503,312.98904538341156
36011,NY,42.9175,-76.5545,76958,Cayuga County,60.1,2022-09-14,Cayuga,18670.0,163.0,4.7,59335,24259.985966371267,211.8038410561605
39141,OH,39.3376,-83.057,76816,Ross County,51.7,2022-09-14,Ross,22715.0,312.0,4.8,49543,29570.662362007915,406.16538221203916
36009,NY,42.2486,-78.6788,76750,Cattaraugus County,57.2,2022-09-14,Cattaraugus,17865.0,235.0,5.3,51824,23276.872964169383,306.18892508143324
17183,IL,40.1834,-87.7328,76704,Vermilion County,46.5,2022-09-14,Vermilion,32309.0,320.0,6.5,49678,42121.66249478515,417.1881518564873
53007,WA,47.8692,-120.619,76653,Chelan County,71.6,2022-09-14,Chelan,23023.0,182.0,5.3,61546,30035.354128344617,237.43362947308
29051,MO,38.5054,-92.2816,76630,Cole County,53.8,2022-09-14,Cole,22232.0,293.0,3.1,63486,29012.136239070864,382.35677932924443
18059,IN,39.8236,-85.7732,76614,Hancock County,69.9,2022-09-14,Hancock,23288.0,273.0,2.6,77916,30396.533270681597,356.33174093507716
35061,NM,34.7155,-106.809,76518,Valencia County,60.9,2022-09-14,Valencia,22466.0,298.0,6.9,51564,29360.41192921927,389.4508481664445
47001,TN,36.1185,-84.1985,76513,Anderson County,56.8,2022-09-14,Anderson,25665.0,365.0,3.8,53002,33543.31943591285,477.0431168559591
53009,WA,48.0493,-123.928,76482,Clallam County,69.5,2022-09-14,Clallam,14593.0,167.0,6.5,54712,19080.306477341073,218.35203054313433
33005,NH,42.9194,-72.2512,76040,Cheshire County,64.2,2022-09-14,Cheshire,17358.0,122.0,3.9,66398,22827.459231983164,160.4418726985797
51095,VA,37.3288,-76.7789,76032,James City County,56.5,2022-09-14,James City,18997.0,130.0,4.0,86501,24985.53240740741,170.98063973063972
39063,OH,41.0019,-83.6665,75765,Hancock County,51.7,2022-09-14,Hancock,19310.0,279.0,4.1,61473,25486.70230317429,368.2439120966145
51015,VA,38.1644,-79.1339,75754,Augusta County,49.4,2022-09-14,Augusta,22453.0,229.0,3.1,67698,29639.358977743752,302.2942682894633
48099,TX,31.3909,-97.7992,75576,Coryell County,48.3,2022-09-14,Coryell,19877.0,218.0,5.7,58398,26300.6774637451,288.45136022017573
28075,MS,32.4043,-88.6626,75557,Lauderdale County,52.3,2022-09-14,Lauderdale,20794.0,375.0,5.4,44821,27520.944452532527,496.31404105509745
39145,OH,38.8039,-82.9929,75441,Scioto County,51.2,2022-09-14,Scioto,24893.0,266.0,6.2,44297,32996.64638591747,352.5934173725163
26159,MI,42.2513,-86.0189,75416,Van Buren County,58.1,2022-09-14,Van Buren,19400.0,293.0,6.1,56526,25723.984300413704,388.5117216505781
36105,NY,41.7164,-74.7681,75329,Sullivan County,62.2,2022-09-14,Sullivan,21955.0,136.0,4.9,63915,29145.481819750697,180.54135857372327
28035,MS,31.1889,-89.2579,75162,Forrest County,44.9,2022-09-14,Forrest,25667.0,317.0,5.7,42082,34148.905031797985,421.7556744099412
12087,FL,25.3185,-81.1087,75137,Monroe County,79.6,2022-09-14,Monroe,21322.0,131.0,3.0,68584,28377.497105287675,174.34819063843378
54081,WV,37.7714,-81.2487,74452,Raleigh County,54.8,2022-09-14,Raleigh,27926.0,378.0,5.2,44526,37508.730457207326,507.70966528770214
39043,OH,41.3641,-82.6194,74419,Erie County,60.1,2022-09-14,Erie,22466.0,272.0,6.3,66252,30188.527123449654,365.4980582915653
20161,KS,39.2966,-96.7352,74059,Riley County,40.3,2022-09-14,Riley,15299.0,93.0,2.8,56333,20657.85387326321,125.57555462536627
42111,PA,39.9725,-79.0283,73844,Somerset County,50.0,2022-09-14,Somerset,20779.0,420.0,6.7,51916,28139.04988895509,568.7665890255132
12107,FL,29.6086,-81.7443,73784,Putnam County,42.8,2022-09-14,Putnam,20285.0,446.0,6.1,36527,27492.410278651198,604.4670931367234
53027,WA,47.1502,-123.7736,73769,Grays Harbor County,62.3,2022-09-14,Grays Harbor,19144.0,217.0,7.8,54034,25951.28034811371,294.1615041548618
5085,AR,34.7543,-91.8888,73163,Lonoke County,49.1,2022-09-14,Lonoke,22571.0,256.0,3.3,59623,30850.293180979454,349.90363981794076
55141,WI,44.4553,-90.0416,72892,Wood County,62.9,2022-09-14,Wood,24745.0,245.0,4.4,54154,33947.483948855835,336.11370246391925
37037,NC,35.7026,-79.2553,72853,Chatham County,66.6,2022-09-14,Chatham,16060.0,126.0,3.6,74747,22044.390759474558,172.95101093983777
40125,OK,35.2066,-96.9484,72511,Pottawatomie County,50.8,2022-09-14,Pottawatomie,23953.0,288.0,3.9,50118,33033.60869385335,397.1811173477127
48471,TX,30.739,-95.5723,72295,Walker County,48.2,2022-09-14,Walker,21263.0,214.0,6.3,43002,29411.43924199461,296.0094059063559
35031,NM,35.5807,-108.2618,71956,McKinley County,94.4,2022-09-14,McKinley,30178.0,622.0,9.6,35659,41939.518594696754,864.4171438101062
37171,NC,36.4146,-80.688,71904,Surry County,53.5,2022-09-14,Surry,25550.0,380.0,4.4,47114,35533.489096573205,528.4824210057856
4001,AZ,35.3955,-109.4888,71714,Apache County,95.0,2022-09-14,Apache,31066.0,623.0,9.1,36319,43319.29609281312,868.7285606715565
